Date, Time, mavlink_attitude_t.roll, mavlink_attitude_t.pitch, mavlink_attitude_t.yaw, mavlink_vfr_hud_t.airspeed, mavlink_vfr_hud_t.groundspeed, mavlink_vfr_hud_t.alt, mavlink_vfr_hud_t.heading, mavlink_vfr_hud_t.climb, mavlink_raw_imu_t.xacc, mavlink_raw_imu_t.yacc, mavlink_raw_imu_t.zacc, mavlink_raw_imu_t.xmag, mavlink_raw_imu_t.ymag, mavlink_raw_imu_t.zmag, mavlink_gps_raw_int_t.lat, mavlink_gps_raw_int_t.lon, mavlink_gps_raw_int_t.alt, mavlink_wind_t.direction, mavlink_wind_t.speed
22-01-2019, 13:21:26 ,6.3E-05,0.000494495,1.591134,0,0,0,0,0,0,0,0,0,0,0,0,0,0,0,0
22-01-2019, 13:21:26 ,6.3E-05,0.000494495,1.591134,0,0,-0.17,91,0.352551,0,0,0,0,0,0,0,0,0,0,0
22-01-2019, 13:21:26 ,6.3E-05,0.000494495,1.591134,0,0,-0.17,91,0.352551,0,0,-1001,-8,-404,99,0,0,0,0,0
22-01-2019, 13:21:26 ,6.3E-05,0.000494495,1.591134,0,0,-0.17,91,0.352551,0,0,-1001,-8,-404,99,130808263,775949655,927970,0,0
22-01-2019, 13:21:26 ,6.3E-05,0.000494495,1.591134,0,0,-0.17,91,0.352551,0,0,-1001,-8,-404,99,130808263,775949655,927970,-180,0
22-01-2019, 13:21:26 ,6.33E-05,0.000490936,1.591143,0,0,-0.17,91,0.352551,0,0,-1001,-8,-404,99,130808263,775949655,927970,-180,0
22-01-2019, 13:21:27 ,9.18E-05,0.000257842,1.59116,0.0220617,0.0192403,0.16,91,-0.3628155,0,0,-1001,-8,-404,99,130808263,775949655,927970,-180,0
22-01-2019, 13:21:27 ,9.18E-05,0.000257842,1.59116,0.0220617,0.01402618,-0.06,91,0.5951785,0,0,-1001,-8,-404,99,130808263,775949655,927970,-180,0
22-01-2019, 13:21:27 ,9.18E-05,0.000257842,1.59116,0.0220617,0.01402618,-0.06,91,0.5951785,0,0,-1001,-8,-404,99,130808263,775949655,927970,-180,0
22-01-2019, 13:21:27 ,9.18E-05,0.000257842,1.59116,0.0220617,0.01402618,-0.06,91,0.5951785,0,0,-1001,-8,-404,99,130808263,775949655,927970,-180,0
22-01-2019, 13:21:27 ,9.18E-05,0.000257842,1.59116,0.0220617,0.01402618,-0.06,91,0.5951785,0,0,-1001,-8,-404,99,130808263,775949655,927970,-180,0
22-01-2019, 13:21:27 ,0.00012518,3.17E-05,1.591179,0.0220617,0.01402618,-0.06,91,0.5951785,0,0,-1001,-8,-404,99,130808263,775949655,927970,-180,0
22-01-2019, 13:21:27 ,0.00012518,3.17E-05,1.591179,0.0220617,0.009202575,0.03,91,-0.7112427,0,0,-1001,-8,-404,99,130808263,775949655,927970,-180,0
22-01-2019, 13:21:27 ,0.000166027,-0.000108689,1.58817,0.0220617,0.009202575,0.03,91,-0.7112427,0,0,-1001,-8,-404,99,130808263,775949655,927970,-180,0
22-01-2019, 13:21:27 ,0.000166027,-0.000108689,1.58817,0.0220617,0.006708906,927.9,90,-0.06761512,0,0,-1001,-8,-404,99,130808263,775949655,927970,-180,0
22-01-2019, 13:21:27 ,0.000166027,-0.000108689,1.58817,0.0220617,0.006708906,927.9,90,-0.06761512,0,0,-1001,-8,-404,99,130808263,775949655,927970,-180,0
22-01-2019, 13:21:27 ,0.000166027,-0.000108689,1.58817,0.0220617,0.006708906,927.9,90,-0.06761512,0,0,-1001,-8,-404,99,130808263,775949655,927970,-180,0
22-01-2019, 13:21:27 ,0.000166027,-0.000108689,1.58817,0.0220617,0.006708906,927.9,90,-0.06761512,0,0,-1001,-8,-404,99,130808263,775949655,927970,-180,0
22-01-2019, 13:21:27 ,0.000166707,-0.000140201,1.584462,0.0220617,0.006708906,927.9,90,-0.06761512,0,0,-1001,-8,-404,99,130808263,775949655,927970,-180,0
22-01-2019, 13:21:27 ,0.000166707,-0.000140201,1.584462,0.0220617,0.00440269,927.95,90,0.7180898,0,0,-1001,-8,-404,99,130808263,775949655,927970,-180,0
22-01-2019, 13:21:28 ,0.000172797,-0.000137455,1.581334,0.0220617,0.00440269,927.95,90,0.7180898,0,0,-1001,-8,-404,99,130808263,775949655,927970,-180,0
22-01-2019, 13:21:28 ,0.000172797,-0.000137455,1.581334,0.0220617,0.003211436,927.92,90,-0.3089754,0,0,-1001,-8,-404,99,130808263,775949655,927970,-180,0
22-01-2019, 13:21:28 ,0.000172797,-0.000137455,1.581334,0.0220617,0.003211436,927.92,90,-0.3089754,0,0,-1001,-8,-404,99,130808263,775949655,927970,-180,0
22-01-2019, 13:21:28 ,0.000172797,-0.000137455,1.581334,0.0220617,0.003211436,927.92,90,-0.3089754,0,0,-1001,-8,-404,99,130808263,775949655,927970,-180,0
22-01-2019, 13:21:28 ,0.000172797,-0.000137455,1.581334,0.0220617,0.003211436,927.92,90,-0.3089754,0,0,-1001,-8,-404,99,130808263,775949655,927970,-180,0
22-01-2019, 13:21:28 ,0.000161654,-0.000128317,1.579092,0.0220617,0.003211436,927.92,90,-0.3089754,0,0,-1001,-8,-404,99,130808263,775949655,927970,-180,0
22-01-2019, 13:21:28 ,0.000161654,-0.000128317,1.579092,0.0220617,0.002109086,927.9,90,0.05820035,0,0,-1001,-8,-404,99,130808263,775949655,927970,-180,0
22-01-2019, 13:21:28 ,0.000155362,-9.63E-05,1.577197,0.0220617,0.002109086,927.9,90,0.05820035,0,0,-1001,-8,-404,99,130808263,775949655,927970,-180,0
22-01-2019, 13:21:28 ,0.000155362,-9.63E-05,1.577197,0.0220617,0.001540227,927.89,90,-0.4099702,0,0,-1001,-8,-404,99,130808263,775949655,927970,-180,0
22-01-2019, 13:21:29 ,0.000155362,-9.63E-05,1.577197,0.0220617,0.001540227,927.89,90,-0.4099702,0,0,-1001,-8,-404,99,130808263,775949655,927970,-180,0
22-01-2019, 13:21:29 ,0.000155362,-9.63E-05,1.577197,0.0220617,0.001540227,927.89,90,-0.4099702,0,0,-1001,-8,-404,99,130808263,775949655,927970,-180,0
22-01-2019, 13:21:29 ,0.000155362,-9.63E-05,1.577197,0.0220617,0.001540227,927.89,90,-0.4099702,0,0,-1001,-8,-404,99,130808263,775949655,927970,90.2901,0.001900276
22-01-2019, 13:21:29 ,0.000179328,-7.67E-05,1.575849,0.0220617,0.001540227,927.89,90,-0.4099702,0,0,-1001,-8,-404,99,130808263,775949655,927970,90.2901,0.001900276
22-01-2019, 13:21:29 ,0.000179328,-7.67E-05,1.575849,0.0220617,0.002719755,927.8,90,0.540921,0,0,-1001,-8,-404,99,130808263,775949655,927970,90.2901,0.001900276
22-01-2019, 13:21:29 ,0.000197094,-6.96E-05,1.574706,0.0220617,0.002719755,927.8,90,0.540921,0,0,-1001,-8,-404,99,130808263,775949655,927970,90.2901,0.001900276
22-01-2019, 13:21:29 ,0.000197094,-6.96E-05,1.574706,0.0220617,0.003556097,927.79,90,-0.1711747,0,0,-1001,-8,-404,99,130808263,775949655,927970,90.2901,0.001900276
22-01-2019, 13:21:29 ,0.000197094,-6.96E-05,1.574706,0.0220617,0.003556097,927.79,90,-0.1711747,0,0,-1001,-8,-404,99,130808263,775949655,927970,90.2901,0.001900276
22-01-2019, 13:21:29 ,0.000197094,-6.96E-05,1.574706,0.0220617,0.003556097,927.79,90,-0.1711747,0,0,-1001,-8,-404,99,130808263,775949655,927970,90.2901,0.001900276
22-01-2019, 13:21:29 ,0.000197094,-6.96E-05,1.574706,0.0220617,0.003556097,927.79,90,-0.1711747,0,0,-1001,-8,-404,99,130808263,775949655,927970,90.23862,0.005256924
22-01-2019, 13:21:29 ,0.000175255,-4.75E-05,1.57388,0.0220617,0.003556097,927.79,90,-0.1711747,0,0,-1001,-8,-404,99,130808263,775949655,927970,90.23862,0.005256924
22-01-2019, 13:21:29 ,0.000175255,-4.75E-05,1.57388,0.0220617,0.003635974,927.82,90,0.2746211,0,0,-1001,-8,-404,99,130808263,775949655,927970,90.23862,0.005256924
22-01-2019, 13:21:30 ,0.000162852,-2.53E-05,1.573186,0.0220617,0.003635974,927.82,90,0.2746211,0,0,-1001,-8,-404,99,130808263,775949655,927970,90.23862,0.005256924
22-01-2019, 13:21:30 ,0.000162852,-2.53E-05,1.573186,0.0220617,0.003849261,928.01,90,0.1302464,0,0,-1001,-8,-404,99,130808263,775949655,927970,90.23862,0.005256924
22-01-2019, 13:21:30 ,0.000162852,-2.53E-05,1.573186,0.0220617,0.003849261,928.01,90,0.1302464,0,0,-1001,-8,-404,99,130808263,775949655,927970,90.23862,0.005256924
22-01-2019, 13:21:30 ,0.000162852,-2.53E-05,1.573186,0.0220617,0.003849261,928.01,90,0.1302464,0,0,-1001,-8,-404,99,130808263,775949655,927970,90.23862,0.005256924
22-01-2019, 13:21:30 ,0.000162852,-2.53E-05,1.573186,0.0220617,0.003849261,928.01,90,0.1302464,0,0,-1001,-8,-404,99,130808263,775949655,927970,90.17889,0.009350424
22-01-2019, 13:21:30 ,0.000130887,-3.92E-05,1.572695,0.0220617,0.003849261,928.01,90,0.1302464,0,0,-1001,-8,-404,99,130808263,775949655,927970,90.17889,0.009350424
22-01-2019, 13:21:30 ,0.000130887,-3.92E-05,1.572695,0.0220617,0.004645051,928.15,90,0.01882382,0,0,-1001,-8,-404,99,130808263,775949655,927970,90.17889,0.009350424
22-01-2019, 13:21:31 ,0.000130887,-3.92E-05,1.572695,0.0220617,0.004645051,928.15,90,0.01882382,0,0,-1000,-8,-404,99,130808263,775949655,927970,90.17889,0.009350424
22-01-2019, 13:21:31 ,0.000130887,-3.92E-05,1.572695,0.0220617,0.004645051,928.15,90,0.01882382,0,0,-1000,-8,-404,99,130808263,775949655,927970,90.17889,0.009350424
22-01-2019, 13:21:31 ,0.000130887,-3.92E-05,1.572695,0.0220617,0.004645051,928.15,90,0.01882382,0,0,-1000,-8,-404,99,130808263,775949655,927970,90.13521,0.01253798
22-01-2019, 13:21:31 ,0.000125321,-5.91E-05,1.571778,0.0220617,0.004645051,928.15,90,0.01882382,0,0,-1000,-8,-404,99,130808263,775949655,927970,90.13521,0.01253798
22-01-2019, 13:21:31 ,0.000125321,-5.91E-05,1.571778,0.0220617,0.00409742,928.17,90,-0.05991214,0,0,-1000,-8,-404,99,130808263,775949655,927970,90.13521,0.01253798
22-01-2019, 13:21:31 ,0.000125321,-5.91E-05,1.571778,0.0220617,0.00409742,928.17,90,-0.05991214,0,0,-1000,-8,-404,99,130808263,775949655,927970,90.13521,0.01253798
22-01-2019, 13:21:31 ,0.000125321,-5.91E-05,1.571778,0.0220617,0.003687678,928.17,90,-0.05991214,0,0,-1000,-8,-404,99,130808263,775949655,927970,90.13521,0.01253798
22-01-2019, 13:21:31 ,9.03E-05,-6.17E-05,1.571726,0.0220617,0.003687678,928.17,90,-0.05991214,0,0,-1000,-8,-404,99,130808263,775949655,927970,90.13521,0.01253798
22-01-2019, 13:21:31 ,9.03E-05,-6.17E-05,1.571726,0.0220617,0.003318924,928.17,90,-0.05991214,0,0,-1000,-8,-404,99,130808263,775949655,927970,90.13521,0.01253798
22-01-2019, 13:21:31 ,9.03E-05,-6.17E-05,1.571726,0.0220617,0.003318924,928.17,90,-0.05991214,0,0,-1001,-8,-404,99,130808263,775949655,927970,90.13521,0.01253798
22-01-2019, 13:21:31 ,9.03E-05,-6.17E-05,1.571726,0.0220617,0.003318924,928.17,90,-0.05991214,0,0,-1001,-8,-404,99,130808263,775949655,927970,90.13521,0.01253798
22-01-2019, 13:21:31 ,9.03E-05,-6.17E-05,1.571726,0.0220617,0.003318924,928.17,90,-0.05991214,0,0,-1001,-8,-404,99,130808263,775949655,927970,90.11272,0.01426452
22-01-2019, 13:21:31 ,0.000135631,-8.68E-05,1.571554,0.0220617,0.003318924,928.17,90,-0.05991214,0,0,-1001,-8,-404,99,130808263,775949655,927970,90.11272,0.01426452
22-01-2019, 13:21:31 ,0.000135631,-8.68E-05,1.571554,0.0220617,0.003616971,927.92,90,-0.5763121,0,0,-1001,-8,-404,99,130808263,775949655,927970,90.11272,0.01426452
22-01-2019, 13:21:31 ,0.000137318,-8.57E-05,1.571408,0.0220617,0.003616971,927.92,90,-0.5763121,0,0,-1001,-8,-404,99,130808263,775949655,927970,90.11272,0.01426452
22-01-2019, 13:21:31 ,0.000137318,-8.57E-05,1.571408,0.0220617,0.003323455,927.8,90,-0.2615868,0,0,-1001,-8,-404,99,130808263,775949655,927970,90.11272,0.01426452
22-01-2019, 13:21:31 ,0.000137318,-8.57E-05,1.571408,0.0220617,0.003323455,927.8,90,-0.2615868,0,0,-1001,-8,-404,99,130808263,775949655,927970,90.11272,0.01426452
22-01-2019, 13:21:31 ,0.000137318,-8.57E-05,1.571408,0.0220617,0.003323455,927.8,90,-0.2615868,0,0,-1001,-8,-404,99,130808263,775949655,927970,90.11272,0.01426452
22-01-2019, 13:21:31 ,0.000137318,-8.57E-05,1.571408,0.0220617,0.003323455,927.8,90,-0.2615868,0,0,-1001,-8,-404,99,130808263,775949655,927970,90.09448,0.01572941
22-01-2019, 13:21:31 ,0.000117022,-6.29E-05,1.571304,0.0220617,0.003323455,927.8,90,-0.2615868,0,0,-1001,-8,-404,99,130808263,775949655,927970,90.09448,0.01572941
22-01-2019, 13:21:31 ,0.000117022,-6.29E-05,1.571304,0.0220617,0.002749087,928.07,90,-0.277219,0,0,-1001,-8,-404,99,130808263,775949655,927970,90.09448,0.01572941
22-01-2019, 13:21:32 ,0.00014111,-2.44E-05,1.571211,0.0220617,0.002749087,928.07,90,-0.277219,0,0,-1001,-8,-404,99,130808263,775949655,927970,90.09448,0.01572941
22-01-2019, 13:21:32 ,0.00014111,-2.44E-05,1.571211,0.0220617,0.00252717,928.19,90,0.261346,0,0,-1001,-8,-404,99,130808263,775949655,927970,90.09448,0.01572941
22-01-2019, 13:21:32 ,0.00014111,-2.44E-05,1.571211,0.0220617,0.00252717,928.19,90,0.261346,0,0,-1000,-8,-404,99,130808263,775949655,927970,90.09448,0.01572941
22-01-2019, 13:21:32 ,0.00014111,-2.44E-05,1.571211,0.0220617,0.00252717,928.19,90,0.261346,0,0,-1000,-8,-404,99,130808263,775949655,927970,90.09448,0.01572941
22-01-2019, 13:21:32 ,0.00014111,-2.44E-05,1.571211,0.0220617,0.00252717,928.19,90,0.261346,0,0,-1000,-8,-404,99,130808263,775949655,927970,90.07278,0.01751587
22-01-2019, 13:21:32 ,0.000161238,-2.33E-05,1.571105,0.0220617,0.00252717,928.19,90,0.261346,0,0,-1000,-8,-404,99,130808263,775949655,927970,90.07278,0.01751587
22-01-2019, 13:21:32 ,0.000161238,-2.33E-05,1.571105,0.0220617,0.00258312,927.9,90,-0.003437432,0,0,-1000,-8,-404,99,130808263,775949655,927970,90.07278,0.01751587
22-01-2019, 13:21:32 ,0.000185813,-2.66E-05,1.571014,0.0220617,0.00258312,927.9,90,-0.003437432,0,0,-1000,-8,-404,99,130808263,775949655,927970,90.07278,0.01751587
22-01-2019, 13:21:32 ,0.000185813,-2.66E-05,1.571014,0.0220617,0.002335674,927.95,90,-0.2921809,0,0,-1000,-8,-404,99,130808263,775949655,927970,90.07278,0.01751587
22-01-2019, 13:21:32 ,0.000185813,-2.66E-05,1.571014,0.0220617,0.002335674,927.95,90,-0.2921809,0,0,-1001,-8,-404,99,130808263,775949655,927970,90.07278,0.01751587
22-01-2019, 13:21:32 ,0.000185813,-2.66E-05,1.571014,0.0220617,0.002335674,927.95,90,-0.2921809,0,0,-1001,-8,-404,99,130808263,775949655,927970,90.07278,0.01751587
22-01-2019, 13:21:32 ,0.000185813,-2.66E-05,1.571014,0.0220617,0.002335674,927.95,90,-0.2921809,0,0,-1001,-8,-404,99,130808263,775949655,927970,90.06065,0.01848135
22-01-2019, 13:21:32 ,0.000157945,-3.11E-05,1.570937,0.0220617,0.002335674,927.95,90,-0.2921809,0,0,-1001,-8,-404,99,130808263,775949655,927970,90.06065,0.01848135
22-01-2019, 13:21:32 ,0.000157945,-3.11E-05,1.570937,0.0220617,0.001907174,928.14,90,-0.252331,0,0,-1001,-8,-404,99,130808263,775949655,927970,90.06065,0.01848135
22-01-2019, 13:21:32 ,0.000178484,-4.67E-05,1.570884,0.0220617,0.001907174,928.14,90,-0.252331,0,0,-1001,-8,-404,99,130808263,775949655,927970,90.06065,0.01848135
22-01-2019, 13:21:32 ,0.000178484,-4.67E-05,1.570884,0.0220617,0.001735087,927.81,90,0.3072215,0,0,-1001,-8,-404,99,130808263,775949655,927970,90.06065,0.01848135
22-01-2019, 13:21:33 ,0.000178484,-4.67E-05,1.570884,0.0220617,0.001735087,927.81,90,0.3072215,0,0,-1001,-8,-404,99,130808263,775949655,927970,90.06065,0.01848135
22-01-2019, 13:21:33 ,0.000178484,-4.67E-05,1.570884,0.0220617,0.001735087,927.81,90,0.3072215,0,0,-1001,-8,-404,99,130808263,775949655,927970,90.06065,0.01848135
22-01-2019, 13:21:33 ,0.000178484,-4.67E-05,1.570884,0.0220617,0.001735087,927.81,90,0.3072215,0,0,-1001,-8,-404,99,130808263,775949655,927970,90.04564,0.01965878
22-01-2019, 13:21:33 ,0.000210209,-3.67E-05,1.570847,0.0220617,0.001735087,927.81,90,0.3072215,0,0,-1001,-8,-404,99,130808263,775949655,927970,90.04564,0.01965878
22-01-2019, 13:21:33 ,0.000210209,-3.67E-05,1.570847,0.0220617,0.001748069,928.15,90,-0.229448,0,0,-1001,-8,-404,99,130808263,775949655,927970,90.04564,0.01965878
22-01-2019, 13:21:33 ,0.000172742,-6.72E-06,1.570818,0.0220617,0.001748069,928.15,90,-0.229448,0,0,-1001,-8,-404,99,130808263,775949655,927970,90.04564,0.01965878
22-01-2019, 13:21:33 ,0.000172742,-6.72E-06,1.570818,0.0220617,0.001572626,928.18,90,0.8060757,0,0,-1001,-8,-404,99,130808263,775949655,927970,90.04564,0.01965878
22-01-2019, 13:21:33 ,0.000172742,-6.72E-06,1.570818,0.0220617,0.001572626,928.18,90,0.8060757,0,0,-1000,-8,-404,99,130808263,775949655,927970,90.04564,0.01965878
22-01-2019, 13:21:33 ,0.000172742,-6.72E-06,1.570818,0.0220617,0.001572626,928.18,90,0.8060757,0,0,-1000,-8,-404,99,130808263,775949655,927970,90.04564,0.01965878
22-01-2019, 13:21:33 ,0.000172742,-6.72E-06,1.570818,0.0220617,0.001572626,928.18,90,0.8060757,0,0,-1000,-8,-404,99,130808263,775949655,927970,90.03759,0.02029511
22-01-2019, 13:21:33 ,0.000169675,6.04E-06,1.570794,0.0220617,0.001572626,928.18,90,0.8060757,0,0,-1000,-8,-404,99,130808263,775949655,927970,90.03759,0.02029511
22-01-2019, 13:21:33 ,0.000169675,6.04E-06,1.570794,0.0220617,0.001278782,928.19,89,-0.3390601,0,0,-1000,-8,-404,99,130808263,775949655,927970,90.03759,0.02029511
22-01-2019, 13:21:33 ,0.00016382,5.35E-06,1.570774,0.0220617,0.001278782,928.19,89,-0.3390601,0,0,-1000,-8,-404,99,130808263,775949655,927970,90.03759,0.02029511
22-01-2019, 13:21:33 ,0.00016382,5.35E-06,1.570774,0.0220617,0.001159452,928,89,0.1633146,0,0,-1000,-8,-404,99,130808263,775949655,927970,90.03759,0.02029511
22-01-2019, 13:21:34 ,0.00016382,5.35E-06,1.570774,0.0220617,0.001159452,928,89,0.1633146,0,0,-1000,-8,-404,99,130808263,775949655,927970,90.03759,0.02029511
22-01-2019, 13:21:34 ,0.00016382,5.35E-06,1.570774,0.0220617,0.001159452,928,89,0.1633146,0,0,-1000,-8,-404,99,130808263,775949655,927970,90.03759,0.02029511
22-01-2019, 13:21:34 ,0.00016382,5.35E-06,1.570774,0.0220617,0.001159452,928,89,0.1633146,0,0,-1000,-8,-404,99,130808263,775949655,927970,90.02775,0.02107112
22-01-2019, 13:21:34 ,0.000223274,-3.48E-06,1.570749,0.0220617,0.001159452,928,89,0.1633146,0,0,-1000,-8,-404,99,130808263,775949655,927970,90.02775,0.02107112
22-01-2019, 13:21:34 ,0.000223274,-3.48E-06,1.570749,0.0220617,0.001162546,927.94,89,0.02578068,0,0,-1000,-8,-404,99,130808263,775949655,927970,90.02775,0.02107112
22-01-2019, 13:21:34 ,0.000207881,-1.38E-05,1.570741,0.0220617,0.001162546,927.94,89,0.02578068,0,0,-1000,-8,-404,99,130808263,775949655,927970,90.02775,0.02107112
22-01-2019, 13:21:34 ,0.000207881,-1.38E-05,1.570741,0.0220617,0.001044087,928.13,89,-0.0988259,0,0,-1000,-8,-404,99,130808263,775949655,927970,90.02775,0.02107112
22-01-2019, 13:21:34 ,0.000207881,-1.38E-05,1.570741,0.0220617,0.001044087,928.13,89,-0.0988259,0,0,-1001,-8,-404,99,130808263,775949655,927970,90.02775,0.02107112
22-01-2019, 13:21:34 ,0.000207881,-1.38E-05,1.570741,0.0220617,0.001044087,928.13,89,-0.0988259,0,0,-1001,-8,-404,99,130808263,775949655,927970,90.02775,0.02107112
22-01-2019, 13:21:34 ,0.000207881,-1.38E-05,1.570741,0.0220617,0.001044087,928.13,89,-0.0988259,0,0,-1001,-8,-404,99,130808263,775949655,927970,90.02247,0.02149052
22-01-2019, 13:21:34 ,0.000243224,-7.89E-06,1.570731,0.0220617,0.001044087,928.13,89,-0.0988259,0,0,-1001,-8,-404,99,130808263,775949655,927970,90.02247,0.02149052
22-01-2019, 13:21:34 ,0.000243224,-7.89E-06,1.570731,0.0220617,0.000847809,927.87,89,-0.09624784,0,0,-1001,-8,-404,99,130808263,775949655,927970,90.02247,0.02149052
22-01-2019, 13:21:34 ,0.000239979,-1.53E-05,1.570723,0.0220617,0.000847809,927.87,89,-0.09624784,0,0,-1001,-8,-404,99,130808263,775949655,927970,90.02247,0.02149052
22-01-2019, 13:21:34 ,0.000239979,-1.53E-05,1.570723,0.0220617,0.000767807,927.78,89,-0.2182764,0,0,-1001,-8,-404,99,130808263,775949655,927970,90.02247,0.02149052
22-01-2019, 13:21:35 ,0.000239979,-1.53E-05,1.570723,0.0220617,0.000767807,927.78,89,-0.2182764,0,0,-1001,-8,-404,99,130808263,775949655,927970,90.02247,0.02149052
22-01-2019, 13:21:35 ,0.000239979,-1.53E-05,1.570723,0.0220617,0.000767807,927.78,89,-0.2182764,0,0,-1001,-8,-404,99,130808263,775949655,927970,90.02247,0.02149052
22-01-2019, 13:21:35 ,0.000239979,-1.53E-05,1.570723,0.0220617,0.000767807,927.78,89,-0.2182764,0,0,-1001,-8,-404,99,130808263,775949655,927970,90.01612,0.02200198
22-01-2019, 13:21:35 ,0.000236428,-1.26E-05,1.570726,0.0220617,0.000767807,927.78,89,-0.2182764,0,0,-1001,-8,-404,99,130808263,775949655,927970,90.01612,0.02200198
22-01-2019, 13:21:35 ,0.000236428,-1.26E-05,1.570726,0.0220617,0.000768597,927.96,89,0.0739046,0,0,-1001,-8,-404,99,130808263,775949655,927970,90.01612,0.02200198
22-01-2019, 13:21:35 ,0.000239368,-5.11E-07,1.570739,0.0220617,0.000768597,927.96,89,0.0739046,0,0,-1001,-8,-404,99,130808263,775949655,927970,90.01612,0.02200198
22-01-2019, 13:21:35 ,0.000239368,-5.11E-07,1.570739,0.0220617,0.000689874,928.18,89,0.1020961,0,0,-1001,-8,-404,99,130808263,775949655,927970,90.01612,0.02200198
22-01-2019, 13:21:35 ,0.000239368,-5.11E-07,1.570739,0.0220617,0.000689874,928.18,89,0.1020961,0,0,-1001,-8,-404,99,130808263,775949655,927970,90.01612,0.02200198
22-01-2019, 13:21:35 ,0.000239368,-5.11E-07,1.570739,0.0220617,0.000689874,928.18,89,0.1020961,0,0,-1001,-8,-404,99,130808263,775949655,927970,90.01612,0.02200198
22-01-2019, 13:21:35 ,0.000239368,-5.11E-07,1.570739,0.0220617,0.000689874,928.18,89,0.1020961,0,0,-1001,-8,-404,99,130808263,775949655,927970,90.01291,0.02227839
22-01-2019, 13:21:35 ,0.000230313,9.07E-06,1.570738,0.0220617,0.000689874,928.18,89,0.1020961,0,0,-1001,-8,-404,99,130808263,775949655,927970,90.01291,0.02227839
22-01-2019, 13:21:35 ,0.000230313,9.07E-06,1.570738,0.0220617,0.000559911,928.19,89,0.6393607,0,0,-1001,-8,-404,99,130808263,775949655,927970,90.01291,0.02227839
22-01-2019, 13:21:35 ,0.000218836,1.68E-05,1.570739,0.0220617,0.000559911,928.19,89,0.6393607,0,0,-1001,-8,-404,99,130808263,775949655,927970,90.01291,0.02227839
22-01-2019, 13:21:35 ,0.000218836,1.68E-05,1.570739,0.0220617,0.000506878,928.02,89,0.3590231,0,0,-1001,-8,-404,99,130808263,775949655,927970,90.01291,0.02227839
22-01-2019, 13:21:36 ,0.000218836,1.68E-05,1.570739,0.0220617,0.000506878,928.02,89,0.3590231,0,0,-1001,-8,-404,99,130808263,775949655,927970,90.01291,0.02227839
22-01-2019, 13:21:36 ,0.000218836,1.68E-05,1.570739,0.0220617,0.000506878,928.02,89,0.3590231,0,0,-1001,-8,-404,99,130808263,775949655,927970,90.01291,0.02227839
22-01-2019, 13:21:36 ,0.000218836,1.68E-05,1.570739,0.0220617,0.000506878,928.02,89,0.3590231,0,0,-1001,-8,-404,99,130808263,775949655,927970,90.00916,0.02261549
22-01-2019, 13:21:36 ,0.000244173,3.56E-05,1.570743,0.0220617,0.000506878,928.02,89,0.3590231,0,0,-1001,-8,-404,99,130808263,775949655,927970,90.00916,0.02261549
22-01-2019, 13:21:36 ,0.000244173,3.56E-05,1.570743,0.0220617,0.000507113,927.91,89,-0.4571773,0,0,-1001,-8,-404,99,130808263,775949655,927970,90.00916,0.02261549
22-01-2019, 13:21:36 ,0.000181086,3.43E-05,1.57074,0.0220617,0.000507113,927.91,89,-0.4571773,0,0,-1001,-8,-404,99,130808263,775949655,927970,90.00916,0.02261549
22-01-2019, 13:21:36 ,0.000181086,3.43E-05,1.57074,0.0220617,0.000455081,928.12,89,-0.4408495,0,0,-1001,-8,-404,99,130808263,775949655,927970,90.00916,0.02261549
22-01-2019, 13:21:36 ,0.000181086,3.43E-05,1.57074,0.0220617,0.000455081,928.12,89,-0.4408495,0,0,-1000,-8,-404,99,130808263,775949655,927970,90.00916,0.02261549
22-01-2019, 13:21:36 ,0.000181086,3.43E-05,1.57074,0.0220617,0.000455081,928.12,89,-0.4408495,0,0,-1000,-8,-404,99,130808263,775949655,927970,90.00916,0.02261549
22-01-2019, 13:21:36 ,0.000181086,3.43E-05,1.57074,0.0220617,0.000455081,928.12,89,-0.4408495,0,0,-1000,-8,-404,99,130808263,775949655,927970,90.00713,0.02279767
22-01-2019, 13:21:36 ,0.000187482,2.63E-05,1.570733,0.0220617,0.000455081,928.12,89,-0.4408495,0,0,-1000,-8,-404,99,130808263,775949655,927970,90.00713,0.02279767
22-01-2019, 13:21:36 ,0.000187482,2.63E-05,1.570733,0.0220617,0.000369289,928,89,0.03953037,0,0,-1000,-8,-404,99,130808263,775949655,927970,90.00713,0.02279767
22-01-2019, 13:21:36 ,0.000190243,1.23E-05,1.570735,0.0220617,0.000369289,928,89,0.03953037,0,0,-1000,-8,-404,99,130808263,775949655,927970,90.00713,0.02279767
22-01-2019, 13:21:36 ,0.000190243,1.23E-05,1.570735,0.0220617,0.000334266,927.77,89,0.1220285,0,0,-1000,-8,-404,99,130808263,775949655,927970,90.00713,0.02279767
22-01-2019, 13:21:37 ,0.000190243,1.23E-05,1.570735,0.0220617,0.000334266,927.77,89,0.1220285,0,0,-1001,-8,-404,99,130808263,775949655,927970,90.00713,0.02279767
22-01-2019, 13:21:37 ,0.000190243,1.23E-05,1.570735,0.0220617,0.000334266,927.77,89,0.1220285,0,0,-1001,-8,-404,99,130808263,775949655,927970,90.00713,0.02279767
22-01-2019, 13:21:37 ,0.000190243,1.23E-05,1.570735,0.0220617,0.000334266,927.77,89,0.1220285,0,0,-1001,-8,-404,99,130808263,775949655,927970,90.00545,0.02295187
22-01-2019, 13:21:37 ,0.000236892,1.28E-05,1.570746,0.0220617,0.000334266,927.77,89,0.1220285,0,0,-1001,-8,-404,99,130808263,775949655,927970,90.00545,0.02295187
22-01-2019, 13:21:37 ,0.000236892,1.28E-05,1.570746,0.0220617,0.000321126,928.06,89,0.08932585,0,0,-1001,-8,-404,99,130808263,775949655,927970,90.00545,0.02295187
22-01-2019, 13:21:37 ,0.000258494,2.1E-05,1.570754,0.0220617,0.000321126,928.06,89,0.08932585,0,0,-1001,-8,-404,99,130808263,775949655,927970,90.00545,0.02295187
22-01-2019, 13:21:37 ,0.000258494,2.1E-05,1.570754,0.0220617,0.000234101,927.9,89,0.4447606,0,0,-1001,-8,-404,99,130808263,775949655,927970,90.00545,0.02295187
22-01-2019, 13:21:37 ,0.000258494,2.1E-05,1.570754,0.0220617,0.000234101,927.9,89,0.4447606,0,0,-1001,-8,-404,99,130808263,775949655,927970,90.00545,0.02295187
22-01-2019, 13:21:37 ,0.000258494,2.1E-05,1.570754,0.0220617,0.000234101,927.9,89,0.4447606,0,0,-1001,-8,-404,99,130808263,775949655,927970,90.00545,0.02295187
22-01-2019, 13:21:37 ,0.000258494,2.1E-05,1.570754,0.0220617,0.000234101,927.9,89,0.4447606,0,0,-1001,-8,-404,99,130808263,775949655,927970,90.00545,0.02295187
22-01-2019, 13:21:37 ,0.000250129,1.01E-05,1.570747,0.0220617,0.000234101,927.9,89,0.4447606,0,0,-1001,-8,-404,99,130808263,775949655,927970,90.00545,0.02295187
22-01-2019, 13:21:37 ,0.000250129,1.01E-05,1.570747,0.0220617,0.000153594,927.87,89,-0.2953656,0,0,-1001,-8,-404,99,130808263,775949655,927970,90.00545,0.02295187
22-01-2019, 13:21:37 ,0.000211083,3.23E-05,1.570746,0.0220617,0.000153594,927.87,89,-0.2953656,0,0,-1001,-8,-404,99,130808263,775949655,927970,90.00545,0.02295187
22-01-2019, 13:21:37 ,0.000211083,3.23E-05,1.570746,0.0220617,0.00011197,928.03,89,0.1986377,0,0,-1001,-8,-404,99,130808263,775949655,927970,90.00545,0.02295187
22-01-2019, 13:21:38 ,0.000211083,3.23E-05,1.570746,0.0220617,0.00011197,928.03,89,0.1986377,0,0,-1001,-8,-404,99,130808263,775949655,927970,90.00545,0.02295187
22-01-2019, 13:21:38 ,0.000211083,3.23E-05,1.570746,0.0220617,0.00011197,928.03,89,0.1986377,0,0,-1001,-8,-404,99,130808263,775949655,927970,90.00545,0.02295187
22-01-2019, 13:21:38 ,0.000211083,3.23E-05,1.570746,0.0220617,0.00011197,928.03,89,0.1986377,0,0,-1001,-8,-404,99,130808263,775949655,927970,90.00545,0.02295187
22-01-2019, 13:21:38 ,0.000212065,4.37E-05,1.570755,0.0220617,0.00011197,928.03,89,0.1986377,0,0,-1001,-8,-404,99,130808263,775949655,927970,90.00545,0.02295187
22-01-2019, 13:21:38 ,0.000212065,4.37E-05,1.570755,0.0220617,7.35E-05,927.81,89,0.06045493,0,0,-1001,-8,-404,99,130808263,775949655,927970,90.00545,0.02295187
22-01-2019, 13:21:38 ,0.000253298,5.65E-05,1.570748,0.0220617,7.35E-05,927.81,89,0.06045493,0,0,-1001,-8,-404,99,130808263,775949655,927970,90.00545,0.02295187
22-01-2019, 13:21:38 ,0.000253298,5.65E-05,1.570748,0.0220617,5.36E-05,927.93,89,-0.09759154,0,0,-1001,-8,-404,99,130808263,775949655,927970,90.00545,0.02295187
22-01-2019, 13:21:38 ,0.000253298,5.65E-05,1.570748,0.0220617,5.36E-05,927.93,89,-0.09759154,0,0,-1001,-8,-404,99,130808263,775949655,927970,90.00545,0.02295187
22-01-2019, 13:21:38 ,0.000253298,5.65E-05,1.570748,0.0220617,5.36E-05,927.93,89,-0.09759154,0,0,-1001,-8,-404,99,130808263,775949655,927970,90.00545,0.02295187
22-01-2019, 13:21:38 ,0.000253298,5.65E-05,1.570748,0.0220617,5.36E-05,927.93,89,-0.09759154,0,0,-1001,-8,-404,99,130808263,775949655,927970,90.00545,0.02295187
22-01-2019, 13:21:38 ,0.00026408,6.8E-05,1.570747,0.0220617,5.36E-05,927.93,89,-0.09759154,0,0,-1001,-8,-404,99,130808263,775949655,927970,90.00545,0.02295187
22-01-2019, 13:21:38 ,0.00026408,6.8E-05,1.570747,0.0220617,3.51E-05,928.1,89,0.0267729,0,0,-1001,-8,-404,99,130808263,775949655,927970,90.00545,0.02295187
22-01-2019, 13:21:38 ,0.00025221,5.72E-05,1.570756,0.0220617,3.51E-05,928.1,89,0.0267729,0,0,-1001,-8,-404,99,130808263,775949655,927970,90.00545,0.02295187
22-01-2019, 13:21:38 ,0.00025221,5.72E-05,1.570756,0.0220617,2.56E-05,928.13,89,0.2936383,0,0,-1001,-8,-404,99,130808263,775949655,927970,90.00545,0.02295187
22-01-2019, 13:21:39 ,0.00025221,5.72E-05,1.570756,0.0220617,2.56E-05,928.13,89,0.2936383,0,0,-1001,-8,-404,99,130808263,775949655,927970,90.00545,0.02295187
22-01-2019, 13:21:39 ,0.00025221,5.72E-05,1.570756,0.0220617,2.56E-05,928.13,89,0.2936383,0,0,-1001,-8,-404,99,130808263,775949655,927970,90.00545,0.02295187
22-01-2019, 13:21:39 ,0.00025221,5.72E-05,1.570756,0.0220617,2.56E-05,928.13,89,0.2936383,0,0,-1001,-8,-404,99,130808263,775949655,927970,90.00545,0.02295187
22-01-2019, 13:21:39 ,0.00032226,3.53E-05,1.570754,0.0220617,2.56E-05,928.13,89,0.2936383,0,0,-1001,-8,-404,99,130808263,775949655,927970,90.00545,0.02295187
22-01-2019, 13:21:39 ,0.00032226,3.53E-05,1.570754,0.0220617,1.68E-05,928.16,89,-0.1718648,0,0,-1001,-8,-404,99,130808263,775949655,927970,90.00545,0.02295187
22-01-2019, 13:21:39 ,0.000281484,3.3E-05,1.570765,0.0220617,1.68E-05,928.16,89,-0.1718648,0,0,-1001,-8,-404,99,130808263,775949655,927970,90.00545,0.02295187
22-01-2019, 13:21:39 ,0.000281484,3.3E-05,1.570765,0.0220617,7.77E-05,928,89,0.4007299,0,0,-1001,-8,-404,99,130808263,775949655,927970,90.00545,0.02295187
22-01-2019, 13:21:39 ,0.000281484,3.3E-05,1.570765,0.0220617,7.77E-05,928,89,0.4007299,0,0,-1001,-8,-404,99,130808263,775949655,927970,90.00545,0.02295187
22-01-2019, 13:21:39 ,0.000281484,3.3E-05,1.570765,0.0220617,7.77E-05,928,89,0.4007299,0,0,-1001,-8,-404,99,130808263,775949655,927970,90.00545,0.02295187
22-01-2019, 13:21:39 ,0.000281484,3.3E-05,1.570765,0.0220617,7.77E-05,928,89,0.4007299,0,0,-1001,-8,-404,99,130808263,775949655,927970,90.00433,0.02309147
22-01-2019, 13:21:39 ,0.000254268,3.57E-05,1.570773,0.0220617,7.77E-05,928,89,0.4007299,0,0,-1001,-8,-404,99,130808263,775949655,927970,90.00433,0.02309147
22-01-2019, 13:21:39 ,0.000254268,3.57E-05,1.570773,0.0220617,0.000105157,927.93,89,0.04059118,0,0,-1001,-8,-404,99,130808263,775949655,927970,90.00433,0.02309147
22-01-2019, 13:21:39 ,0.000307251,2.03E-05,1.570779,0.0220617,0.000105157,927.93,89,0.04059118,0,0,-1001,-8,-404,99,130808263,775949655,927970,90.00433,0.02309147
22-01-2019, 13:21:39 ,0.000307251,2.03E-05,1.570779,0.0220617,0.000126511,927.8,89,-0.2772291,0,0,-1001,-8,-404,99,130808263,775949655,927970,90.00433,0.02309147
22-01-2019, 13:21:40 ,0.000307251,2.03E-05,1.570779,0.0220617,0.000126511,927.8,89,-0.2772291,0,0,-1001,-8,-404,99,130808263,775949655,927970,90.00433,0.02309147
22-01-2019, 13:21:40 ,0.000307251,2.03E-05,1.570779,0.0220617,0.000126511,927.8,89,-0.2772291,0,0,-1001,-8,-404,99,130808263,775949655,927970,90.00433,0.02309147
22-01-2019, 13:21:40 ,0.000307251,2.03E-05,1.570779,0.0220617,0.000126511,927.8,89,-0.2772291,0,0,-1001,-8,-404,99,130808263,775949655,927970,90.00314,0.02326173
22-01-2019, 13:21:40 ,0.000215162,1.65E-05,1.570784,0.0220617,0.000126511,927.8,89,-0.2772291,0,0,-1001,-8,-404,99,130808263,775949655,927970,90.00314,0.02326173
22-01-2019, 13:21:40 ,0.000215162,1.65E-05,1.570784,0.0220617,0.000171162,928.1,89,-0.1251834,0,0,-1001,-8,-404,99,130808263,775949655,927970,90.00314,0.02326173
22-01-2019, 13:21:40 ,0.000245769,2.67E-05,1.570783,0.0220617,0.000171162,928.1,89,-0.1251834,0,0,-1001,-8,-404,99,130808263,775949655,927970,90.00314,0.02326173
22-01-2019, 13:21:40 ,0.000245769,2.67E-05,1.570783,0.0220617,0.000167911,928.14,89,0.2192514,0,0,-1001,-8,-404,99,130808263,775949655,927970,90.00314,0.02326173
22-01-2019, 13:21:40 ,0.000245769,2.67E-05,1.570783,0.0220617,0.000167911,928.14,89,0.2192514,0,0,-1001,-8,-404,99,130808263,775949655,927970,90.00314,0.02326173
22-01-2019, 13:21:40 ,0.000245769,2.67E-05,1.570783,0.0220617,0.000167911,928.14,89,0.2192514,0,0,-1001,-8,-404,99,130808263,775949655,927970,90.00314,0.02326173
22-01-2019, 13:21:40 ,0.000245769,2.67E-05,1.570783,0.0220617,0.000167911,928.14,89,0.2192514,0,0,-1001,-8,-404,99,130808263,775949655,927970,90.00256,0.02335374
22-01-2019, 13:21:40 ,0.00023982,3.69E-05,1.570789,0.0220617,0.000167911,928.14,89,0.2192514,0,0,-1001,-8,-404,99,130808263,775949655,927970,90.00256,0.02335374
22-01-2019, 13:21:40 ,0.00023982,3.69E-05,1.570789,0.0220617,0.000145875,928.13,89,-0.1164792,0,0,-1001,-8,-404,99,130808263,775949655,927970,90.00256,0.02335374
22-01-2019, 13:21:40 ,0.000270959,5.81E-05,1.570787,0.0220617,0.000145875,928.13,89,-0.1164792,0,0,-1001,-8,-404,99,130808263,775949655,927970,90.00256,0.02335374
22-01-2019, 13:21:40 ,0.000270959,5.81E-05,1.570787,0.0220617,0.0001392,928.01,89,0.003786171,0,0,-1001,-8,-404,99,130808263,775949655,927970,90.00256,0.02335374
22-01-2019, 13:21:41 ,0.000270959,5.81E-05,1.570787,0.0220617,0.0001392,928.01,89,0.003786171,0,0,-1000,-8,-404,99,130808263,775949655,927970,90.00256,0.02335374
22-01-2019, 13:21:41 ,0.000270959,5.81E-05,1.570787,0.0220617,0.0001392,928.01,89,0.003786171,0,0,-1000,-8,-404,99,130808263,775949655,927970,90.00256,0.02335374
22-01-2019, 13:21:41 ,0.000270959,5.81E-05,1.570787,0.0220617,0.0001392,928.01,89,0.003786171,0,0,-1000,-8,-404,99,130808263,775949655,927970,90.00185,0.02346595
22-01-2019, 13:21:41 ,0.000290089,6.29E-05,1.570787,0.0220617,0.0001392,928.01,89,0.003786171,0,0,-1000,-8,-404,99,130808263,775949655,927970,90.00185,0.02346595
22-01-2019, 13:21:41 ,0.000290089,6.29E-05,1.570787,0.0220617,0.000149432,928.1,89,-0.3291992,0,0,-1000,-8,-404,99,130808263,775949655,927970,90.00185,0.02346595
22-01-2019, 13:21:41 ,0.000253353,5.42E-05,1.570794,0.0220617,0.000149432,928.1,89,-0.3291992,0,0,-1000,-8,-404,99,130808263,775949655,927970,90.00185,0.02346595
22-01-2019, 13:21:41 ,0.000253353,5.42E-05,1.570794,0.0220617,0.000137364,927.95,89,0.3204112,0,0,-1000,-8,-404,99,130808263,775949655,927970,90.00185,0.02346595
22-01-2019, 13:21:41 ,0.000253353,5.42E-05,1.570794,0.0220617,0.000137364,927.95,89,0.3204112,0,0,-1001,-8,-404,99,130808263,775949655,927970,90.00185,0.02346595
22-01-2019, 13:21:41 ,0.000253353,5.42E-05,1.570794,0.0220617,0.000137364,927.95,89,0.3204112,0,0,-1001,-8,-404,99,130808263,775949655,927970,90.00185,0.02346595
22-01-2019, 13:21:41 ,0.000253353,5.42E-05,1.570794,0.0220617,0.000137364,927.95,89,0.3204112,0,0,-1001,-8,-404,99,130808263,775949655,927970,90.00154,0.0235266
22-01-2019, 13:21:41 ,0.000258932,5.24E-05,1.570795,0.0220617,0.000137364,927.95,89,0.3204112,0,0,-1001,-8,-404,99,130808263,775949655,927970,90.00154,0.0235266
22-01-2019, 13:21:41 ,0.000258932,5.24E-05,1.570795,0.0220617,0.000113664,927.79,89,-0.55014,0,0,-1001,-8,-404,99,130808263,775949655,927970,90.00154,0.0235266
22-01-2019, 13:21:41 ,0.000224353,7.91E-05,1.570797,0.0220617,0.000113664,927.79,89,-0.55014,0,0,-1001,-8,-404,99,130808263,775949655,927970,90.00154,0.0235266
22-01-2019, 13:21:41 ,0.000224353,7.91E-05,1.570797,0.0220617,0.000104514,928.02,90,-0.2288651,0,0,-1001,-8,-404,99,130808263,775949655,927970,90.00154,0.0235266
22-01-2019, 13:21:42 ,0.000224353,7.91E-05,1.570797,0.0220617,0.000104514,928.02,90,-0.2288651,0,0,-1000,-8,-404,99,130808263,775949655,927970,90.00154,0.0235266
22-01-2019, 13:21:42 ,0.000224353,7.91E-05,1.570797,0.0220617,0.000104514,928.02,90,-0.2288651,0,0,-1000,-8,-404,99,130808263,775949655,927970,90.00154,0.0235266
22-01-2019, 13:21:42 ,0.000224353,7.91E-05,1.570797,0.0220617,0.000104514,928.02,90,-0.2288651,0,0,-1000,-8,-404,99,130808263,775949655,927970,90.00118,0.02360055
22-01-2019, 13:21:42 ,0.000240086,8.08E-05,1.57079,0.0220617,0.000104514,928.02,90,-0.2288651,0,0,-1000,-8,-404,99,130808263,775949655,927970,90.00118,0.02360055
22-01-2019, 13:21:42 ,0.000240086,8.08E-05,1.57079,0.0220617,0.000106866,927.95,89,0.118319,0,0,-1000,-8,-404,99,130808263,775949655,927970,90.00118,0.02360055
22-01-2019, 13:21:42 ,0.000281402,6.44E-05,1.570798,0.0220617,0.000106866,927.95,89,0.118319,0,0,-1000,-8,-404,99,130808263,775949655,927970,90.00118,0.02360055
22-01-2019, 13:21:42 ,0.000281402,6.44E-05,1.570798,0.0220617,9.66E-05,928.08,90,0.09977476,0,0,-1000,-8,-404,99,130808263,775949655,927970,90.00118,0.02360055
22-01-2019, 13:21:42 ,0.000281402,6.44E-05,1.570798,0.0220617,9.66E-05,928.08,90,0.09977476,0,0,-1000,-8,-404,99,130808263,775949655,927970,90.00118,0.02360055
22-01-2019, 13:21:42 ,0.000281402,6.44E-05,1.570798,0.0220617,9.66E-05,928.08,90,0.09977476,0,0,-1000,-8,-404,99,130808263,775949655,927970,90.00118,0.02360055
22-01-2019, 13:21:42 ,0.000281402,6.44E-05,1.570798,0.0220617,9.66E-05,928.08,90,0.09977476,0,0,-1000,-8,-404,99,130808263,775949655,927970,90.00103,0.02364052
22-01-2019, 13:21:42 ,0.000292562,7.65E-05,1.570805,0.0220617,9.66E-05,928.08,90,0.09977476,0,0,-1000,-8,-404,99,130808263,775949655,927970,90.00103,0.02364052
22-01-2019, 13:21:42 ,0.000292562,7.65E-05,1.570805,0.0220617,7.89E-05,927.96,90,-0.4977884,0,0,-1000,-8,-404,99,130808263,775949655,927970,90.00103,0.02364052
22-01-2019, 13:21:42 ,0.00026854,0.000104716,1.570802,0.0220617,7.89E-05,927.96,90,-0.4977884,0,0,-1000,-8,-404,99,130808263,775949655,927970,90.00103,0.02364052
22-01-2019, 13:21:42 ,0.00026854,0.000104716,1.570802,0.0220617,7.18E-05,928.36,90,-0.13991,0,0,-1000,-8,-404,99,130808263,775949655,927970,90.00103,0.02364052
22-01-2019, 13:21:43 ,0.00026854,0.000104716,1.570802,0.0220617,7.18E-05,928.36,90,-0.13991,0,0,-1000,-8,-404,99,130808263,775949655,927970,90.00103,0.02364052
22-01-2019, 13:21:43 ,0.00026854,0.000104716,1.570802,0.0220617,7.18E-05,928.36,90,-0.13991,0,0,-1000,-8,-404,99,130808263,775949655,927970,90.00103,0.02364052
22-01-2019, 13:21:43 ,0.00026854,0.000104716,1.570802,0.0220617,7.18E-05,928.36,90,-0.13991,0,0,-1000,-8,-404,99,130808263,775949655,927970,90.0009,0.02369315
22-01-2019, 13:21:43 ,0.00031006,0.000112206,1.570804,0.0220617,7.18E-05,928.36,90,-0.13991,0,0,-1000,-8,-404,99,130808263,775949655,927970,90.0009,0.02369315
22-01-2019, 13:21:43 ,0.00031006,0.000112206,1.570804,0.0220617,0.000115148,928.12,90,-0.7736032,0,0,-1000,-8,-404,99,130808263,775949655,927970,90.0009,0.02369315
22-01-2019, 13:21:43 ,0.000329344,0.000104826,1.570811,0.0220617,0.000115148,928.12,90,-0.7736032,0,0,-1000,-8,-404,99,130808263,775949655,927970,90.0009,0.02369315
22-01-2019, 13:21:43 ,0.000329344,0.000104826,1.570811,0.0220617,9.95E-05,928.04,90,0.06525957,0,0,-1000,-8,-404,99,130808263,775949655,927970,90.0009,0.02369315
22-01-2019, 13:21:43 ,0.000329344,0.000104826,1.570811,0.0220617,9.95E-05,928.04,90,0.06525957,0,0,-1000,-8,-404,99,130808263,775949655,927970,90.0009,0.02369315
22-01-2019, 13:21:43 ,0.000329344,0.000104826,1.570811,0.0220617,9.95E-05,928.04,90,0.06525957,0,0,-1000,-8,-404,99,130808263,775949655,927970,90.0009,0.02369315
22-01-2019, 13:21:43 ,0.000329344,0.000104826,1.570811,0.0220617,9.95E-05,928.04,90,0.06525957,0,0,-1000,-8,-404,99,130808263,775949655,927970,90.00087,0.02372635
22-01-2019, 13:21:43 ,0.000246056,0.000105412,1.570815,0.0220617,9.95E-05,928.04,90,0.06525957,0,0,-1000,-8,-404,99,130808263,775949655,927970,90.00087,0.02372635
22-01-2019, 13:21:43 ,0.000246056,0.000105412,1.570815,0.0220617,7.82E-05,928.17,90,-0.1186062,0,0,-1000,-8,-404,99,130808263,775949655,927970,90.00087,0.02372635
22-01-2019, 13:21:44 ,0.000258577,0.000118945,1.570819,0.0220617,7.82E-05,928.17,90,-0.1186062,0,0,-1000,-8,-404,99,130808263,775949655,927970,90.00087,0.02372635
22-01-2019, 13:21:44 ,0.000258577,0.000118945,1.570819,0.0220617,6.88E-05,927.81,90,0.192477,0,0,-1000,-8,-404,99,130808263,775949655,927970,90.00087,0.02372635
22-01-2019, 13:21:44 ,0.000258577,0.000118945,1.570819,0.0220617,6.88E-05,927.81,90,0.192477,0,0,-1001,-8,-404,99,130808263,775949655,927970,90.00087,0.02372635
22-01-2019, 13:21:44 ,0.000258577,0.000118945,1.570819,0.0220617,6.88E-05,927.81,90,0.192477,0,0,-1001,-8,-404,99,130808263,775949655,927970,90.00087,0.02372635
22-01-2019, 13:21:44 ,0.000258577,0.000118945,1.570819,0.0220617,6.88E-05,927.81,90,0.192477,0,0,-1001,-8,-404,99,130808263,775949655,927970,90.00096,0.02376683
22-01-2019, 13:21:44 ,0.00026143,0.000122967,1.570822,0.0220617,6.88E-05,927.81,90,0.192477,0,0,-1001,-8,-404,99,130808263,775949655,927970,90.00096,0.02376683
22-01-2019, 13:21:44 ,0.00026143,0.000122967,1.570822,0.0220617,6.61E-05,927.8,90,-0.7214753,0,0,-1001,-8,-404,99,130808263,775949655,927970,90.00096,0.02376683
22-01-2019, 13:21:44 ,0.000254735,0.000120674,1.570823,0.0220617,6.61E-05,927.8,90,-0.7214753,0,0,-1001,-8,-404,99,130808263,775949655,927970,90.00096,0.02376683
22-01-2019, 13:21:44 ,0.000254735,0.000120674,1.570823,0.0220617,5.85E-05,927.98,90,0.06407417,0,0,-1001,-8,-404,99,130808263,775949655,927970,90.00096,0.02376683
22-01-2019, 13:21:44 ,0.000254735,0.000120674,1.570823,0.0220617,5.85E-05,927.98,90,0.06407417,0,0,-1001,-8,-404,99,130808263,775949655,927970,90.00096,0.02376683
22-01-2019, 13:21:44 ,0.000254735,0.000120674,1.570823,0.0220617,5.85E-05,927.98,90,0.06407417,0,0,-1001,-8,-404,99,130808263,775949655,927970,90.00096,0.02376683
22-01-2019, 13:21:44 ,0.000254735,0.000120674,1.570823,0.0220617,5.85E-05,927.98,90,0.06407417,0,0,-1001,-8,-404,99,130808263,775949655,927970,90.00105,0.02378871
22-01-2019, 13:21:44 ,0.00025478,0.000117366,1.570823,0.0220617,5.85E-05,927.98,90,0.06407417,0,0,-1001,-8,-404,99,130808263,775949655,927970,90.00105,0.02378871
22-01-2019, 13:21:44 ,0.00025478,0.000117366,1.570823,0.0220617,4.69E-05,928.07,90,0.2106797,0,0,-1001,-8,-404,99,130808263,775949655,927970,90.00105,0.02378871
22-01-2019, 13:21:45 ,0.000248708,0.000125984,1.570824,0.0220617,4.69E-05,928.07,90,0.2106797,0,0,-1001,-8,-404,99,130808263,775949655,927970,90.00105,0.02378871
22-01-2019, 13:21:45 ,0.000248708,0.000125984,1.570824,0.0220617,4.2E-05,928.17,90,0.2185961,0,0,-1001,-8,-404,99,130808263,775949655,927970,90.00105,0.02378871
22-01-2019, 13:21:45 ,0.000248708,0.000125984,1.570824,0.0220617,4.2E-05,928.17,90,0.2185961,0,0,-1001,-8,-404,99,130808263,775949655,927970,90.00105,0.02378871
22-01-2019, 13:21:45 ,0.000248708,0.000125984,1.570824,0.0220617,4.2E-05,928.17,90,0.2185961,0,0,-1001,-8,-404,99,130808263,775949655,927970,90.00105,0.02378871
22-01-2019, 13:21:45 ,0.000248708,0.000125984,1.570824,0.0220617,4.2E-05,928.17,90,0.2185961,0,0,-1001,-8,-404,99,130808263,775949655,927970,90.00124,0.0238154
22-01-2019, 13:21:45 ,0.000273448,0.00013558,1.570832,0.0220617,4.2E-05,928.17,90,0.2185961,0,0,-1001,-8,-404,99,130808263,775949655,927970,90.00124,0.0238154
22-01-2019, 13:21:45 ,0.000273448,0.00013558,1.570832,0.0220617,4.14E-05,928.11,90,-0.2072507,0,0,-1001,-8,-404,99,130808263,775949655,927970,90.00124,0.0238154
22-01-2019, 13:21:45 ,0.000314837,0.000138266,1.570849,0.0220617,4.14E-05,928.11,90,-0.2072507,0,0,-1001,-8,-404,99,130808263,775949655,927970,90.00124,0.0238154
22-01-2019, 13:21:45 ,0.000314837,0.000138266,1.570849,0.0220617,3.69E-05,927.91,90,-0.2696861,0,0,-1001,-8,-404,99,130808263,775949655,927970,90.00124,0.0238154
22-01-2019, 13:21:45 ,0.000314837,0.000138266,1.570849,0.0220617,3.69E-05,927.91,90,-0.2696861,0,0,-1001,-8,-404,99,130808263,775949655,927970,90.00124,0.0238154
22-01-2019, 13:21:45 ,0.000314837,0.000138266,1.570849,0.0220617,3.69E-05,927.91,90,-0.2696861,0,0,-1001,-8,-404,99,130808263,775949655,927970,90.00124,0.0238154
22-01-2019, 13:21:45 ,0.000314837,0.000138266,1.570849,0.0220617,3.69E-05,927.91,90,-0.2696861,0,0,-1001,-8,-404,99,130808263,775949655,927970,90.00151,0.02382982
22-01-2019, 13:21:45 ,0.000388426,0.000200925,1.57087,0.0220617,3.69E-05,927.91,90,-0.2696861,0,0,-1001,-8,-404,99,130808263,775949655,927970,90.00151,0.02382982
22-01-2019, 13:21:45 ,0.000388426,0.000200925,1.57087,0.0220617,2.98E-05,927.97,90,-0.02167897,0,0,-1001,-8,-404,99,130808263,775949655,927970,90.00151,0.02382982
22-01-2019, 13:21:46 ,0.000441126,0.000258345,1.570891,0.0220617,2.98E-05,927.97,90,-0.02167897,0,0,-1001,-8,-404,99,130808263,775949655,927970,90.00151,0.02382982
22-01-2019, 13:21:46 ,0.000441126,0.000258345,1.570891,0.0220617,2.69E-05,927.77,90,-0.1170663,0,0,-1001,-8,-404,99,130808263,775949655,927970,90.00151,0.02382982
22-01-2019, 13:21:46 ,0.000441126,0.000258345,1.570891,0.0220617,2.69E-05,927.77,90,-0.1170663,0,0,-1001,-8,-404,99,130808263,775949655,927970,90.00151,0.02382982
22-01-2019, 13:21:46 ,0.000441126,0.000258345,1.570891,0.0220617,2.69E-05,927.77,90,-0.1170663,0,0,-1001,-8,-404,99,130808263,775949655,927970,90.00151,0.02382982
22-01-2019, 13:21:46 ,0.000441126,0.000258345,1.570891,0.0220617,2.69E-05,927.77,90,-0.1170663,0,0,-1001,-8,-404,99,130808263,775949655,927970,90.00243,0.02384741
22-01-2019, 13:21:46 ,0.000502835,0.000316402,1.570915,0.0220617,2.69E-05,927.77,90,-0.1170663,0,0,-1001,-8,-404,99,130808263,775949655,927970,90.00243,0.02384741
22-01-2019, 13:21:46 ,0.000502835,0.000316402,1.570915,0.0220617,2.68E-05,927.79,90,-0.5861986,0,0,-1001,-8,-404,99,130808263,775949655,927970,90.00243,0.02384741
22-01-2019, 13:21:46 ,0.000557061,0.000373433,1.570932,0.0220617,2.68E-05,927.79,90,-0.5861986,0,0,-1001,-8,-404,99,130808263,775949655,927970,90.00243,0.02384741
22-01-2019, 13:21:46 ,0.000557061,0.000373433,1.570932,0.0220617,2.4E-05,928.12,90,0.2393298,0,0,-1001,-8,-404,99,130808263,775949655,927970,90.00243,0.02384741
22-01-2019, 13:21:46 ,0.000557061,0.000373433,1.570932,0.0220617,2.4E-05,928.12,90,0.2393298,0,0,-1001,-8,-404,99,130808263,775949655,927970,90.00243,0.02384741
22-01-2019, 13:21:46 ,0.000557061,0.000373433,1.570932,0.0220617,2.4E-05,928.12,90,0.2393298,0,0,-1001,-8,-404,99,130808263,775949655,927970,90.00243,0.02384741
22-01-2019, 13:21:46 ,0.000557061,0.000373433,1.570932,0.0220617,2.4E-05,928.12,90,0.2393298,0,0,-1001,-8,-404,99,130808263,775949655,927970,90.0033,0.02385691
22-01-2019, 13:21:46 ,0.000615988,0.000428962,1.570951,0.0220617,2.4E-05,928.12,90,0.2393298,0,0,-1001,-8,-404,99,130808263,775949655,927970,90.0033,0.02385691
22-01-2019, 13:21:46 ,0.000615988,0.000428962,1.570951,0.0220617,1.95E-05,927.82,90,0.065904,0,0,-1001,-8,-404,99,130808263,775949655,927970,90.0033,0.02385691
22-01-2019, 13:21:47 ,0.000675021,0.000487291,1.570969,0.0220617,1.95E-05,927.82,90,0.065904,0,0,-1001,-8,-404,99,130808263,775949655,927970,90.0033,0.02385691
22-01-2019, 13:21:47 ,0.000675021,0.000487291,1.570969,0.0220617,1.76E-05,928.17,90,0.09125154,0,0,-1001,-8,-404,99,130808263,775949655,927970,90.0033,0.02385691
22-01-2019, 13:21:47 ,0.000675021,0.000487291,1.570969,0.0220617,1.76E-05,928.17,90,0.09125154,0,0,-1000,-8,-404,99,130808263,775949655,927970,90.0033,0.02385691
22-01-2019, 13:21:47 ,0.000675021,0.000487291,1.570969,0.0220617,1.76E-05,928.17,90,0.09125154,0,0,-1000,-8,-404,99,130808263,775949655,927970,90.0033,0.02385691
22-01-2019, 13:21:47 ,0.000675021,0.000487291,1.570969,0.0220617,1.76E-05,928.17,90,0.09125154,0,0,-1000,-8,-404,99,130808263,775949655,927970,90.00484,0.02386851
22-01-2019, 13:21:47 ,0.000725099,0.000540214,1.570993,0.0220617,1.76E-05,928.17,90,0.09125154,0,0,-1000,-8,-404,99,130808263,775949655,927970,90.00484,0.02386851
22-01-2019, 13:21:47 ,0.000725099,0.000540214,1.570993,0.0220617,1.76E-05,927.81,90,-0.444852,0,0,-1000,-8,-404,99,130808263,775949655,927970,90.00484,0.02386851
22-01-2019, 13:21:47 ,0.000774844,0.00058826,1.571,0.0220617,1.76E-05,927.81,90,-0.444852,0,0,-1000,-8,-404,99,130808263,775949655,927970,90.00484,0.02386851
22-01-2019, 13:21:47 ,0.000774844,0.00058826,1.571,0.0220617,1.29E-05,928.1,90,-0.01647601,0,0,-1000,-8,-404,99,130808263,775949655,927970,90.00484,0.02386851
22-01-2019, 13:21:47 ,0.000774844,0.00058826,1.571,0.0220617,1.29E-05,928.1,90,-0.01647601,0,0,-1000,-8,-404,99,130808263,775949655,927970,90.00484,0.02386851
22-01-2019, 13:21:47 ,0.000774844,0.00058826,1.571,0.0220617,1.29E-05,928.1,90,-0.01647601,0,0,-1000,-8,-404,99,130808263,775949655,927970,90.00484,0.02386851
22-01-2019, 13:21:47 ,0.000774844,0.00058826,1.571,0.0220617,1.29E-05,928.1,90,-0.01647601,0,0,-1000,-8,-404,99,130808263,775949655,927970,90.00484,0.02386851
22-01-2019, 13:21:47 ,0.000826618,0.000642912,1.57102,0.0220617,1.29E-05,928.1,90,-0.01647601,0,0,-1000,-8,-404,99,130808263,775949655,927970,90.00484,0.02386851
22-01-2019, 13:21:47 ,0.000826618,0.000642912,1.57102,0.0220617,8.5E-06,928.07,90,0.3754793,0,0,-1000,-8,-404,99,130808263,775949655,927970,90.00484,0.02386851
22-01-2019, 13:21:48 ,0.000878838,0.000670334,1.571036,0.0220617,8.5E-06,928.07,90,0.3754793,0,0,-1000,-8,-404,99,130808263,775949655,927970,90.00484,0.02386851
22-01-2019, 13:21:48 ,0.000878838,0.000670334,1.571036,0.0220617,6.26E-06,927.95,90,-0.1205349,0,0,-1000,-8,-404,99,130808263,775949655,927970,90.00484,0.02386851
22-01-2019, 13:21:48 ,0.000878838,0.000670334,1.571036,0.0220617,6.26E-06,927.95,90,-0.1205349,0,0,-1001,-8,-404,99,130808263,775949655,927970,90.00484,0.02386851
22-01-2019, 13:21:48 ,0.000878838,0.000670334,1.571036,0.0220617,6.26E-06,927.95,90,-0.1205349,0,0,-1001,-8,-404,99,130808263,775949655,927970,90.00484,0.02386851
22-01-2019, 13:21:48 ,0.000878838,0.000670334,1.571036,0.0220617,6.26E-06,927.95,90,-0.1205349,0,0,-1001,-8,-404,99,130808263,775949655,927970,90.00484,0.02386851
22-01-2019, 13:21:48 ,0.000913596,0.000714418,1.571048,0.0220617,6.26E-06,927.95,90,-0.1205349,0,0,-1001,-8,-404,99,130808263,775949655,927970,90.00484,0.02386851
22-01-2019, 13:21:48 ,0.000913596,0.000714418,1.571048,0.0220617,4.16E-06,928.14,90,-0.8402759,0,0,-1001,-8,-404,99,130808263,775949655,927970,90.00484,0.02386851
22-01-2019, 13:21:48 ,0.00095832,0.000753824,1.571061,0.0220617,4.16E-06,928.14,90,-0.8402759,0,0,-1001,-8,-404,99,130808263,775949655,927970,90.00484,0.02386851
22-01-2019, 13:21:48 ,0.00095832,0.000753824,1.571061,0.0220617,3.12E-06,928.17,90,0.6555713,0,0,-1001,-8,-404,99,130808263,775949655,927970,90.00484,0.02386851
22-01-2019, 13:21:48 ,0.00095832,0.000753824,1.571061,0.0220617,3.12E-06,928.17,90,0.6555713,0,0,-1001,-8,-404,99,130808263,775949655,927970,90.00484,0.02386851
22-01-2019, 13:21:48 ,0.00095832,0.000753824,1.571061,0.0220617,3.12E-06,928.17,90,0.6555713,0,0,-1001,-8,-404,99,130808263,775949655,927970,90.00484,0.02386851
22-01-2019, 13:21:48 ,0.00095832,0.000753824,1.571061,0.0220617,3.12E-06,928.17,90,0.6555713,0,0,-1001,-8,-404,99,130808263,775949655,927970,90.00484,0.02386851
22-01-2019, 13:21:48 ,0.001003548,0.000804399,1.571079,0.0220617,3.12E-06,928.17,90,0.6555713,0,0,-1001,-8,-404,99,130808263,775949655,927970,90.00484,0.02386851
22-01-2019, 13:21:48 ,0.001003548,0.000804399,1.571079,0.0220617,2.2E-06,927.91,90,-0.1873061,0,0,-1001,-8,-404,99,130808263,775949655,927970,90.00484,0.02386851
22-01-2019, 13:21:49 ,0.001043599,0.000856292,1.571087,0.0220617,2.2E-06,927.91,90,-0.1873061,0,0,-1001,-8,-404,99,130808263,775949655,927970,90.00484,0.02386851
22-01-2019, 13:21:49 ,0.001043599,0.000856292,1.571087,0.0220617,1.7E-06,927.54,90,-0.2774905,0,0,-1001,-8,-404,99,130808263,775949655,927970,90.00484,0.02386851
22-01-2019, 13:21:49 ,0.001043599,0.000856292,1.571087,0.0220617,1.7E-06,927.54,90,-0.2774905,0,0,-1001,-8,-404,99,130808263,775949655,927970,90.00484,0.02386851
22-01-2019, 13:21:49 ,0.001043599,0.000856292,1.571087,0.0220617,1.7E-06,927.54,90,-0.2774905,0,0,-1001,-8,-404,99,130808263,775949655,927970,90.00484,0.02386851
22-01-2019, 13:21:49 ,0.001043599,0.000856292,1.571087,0.0220617,1.7E-06,927.54,90,-0.2774905,0,0,-1001,-8,-404,99,130808263,775949655,927970,90.00484,0.02386851
22-01-2019, 13:21:49 ,0.001082586,0.000891436,1.571105,0.0220617,1.7E-06,927.54,90,-0.2774905,0,0,-1001,-8,-404,99,130808263,775949655,927970,90.00484,0.02386851
22-01-2019, 13:21:49 ,0.001082586,0.000891436,1.571105,0.0220617,3.32E-05,927.87,90,1.097863,0,0,-1001,-8,-404,99,130808263,775949655,927970,90.00484,0.02386851
22-01-2019, 13:21:49 ,0.001120642,0.000926186,1.571126,0.0220617,3.32E-05,927.87,90,1.097863,0,0,-1001,-8,-404,99,130808263,775949655,927970,90.00484,0.02386851
22-01-2019, 13:21:49 ,0.001120642,0.000926186,1.571126,0.0220617,2.42E-05,927.84,90,0.3948192,0,0,-1001,-8,-404,99,130808263,775949655,927970,90.00484,0.02386851
22-01-2019, 13:21:49 ,0.001120642,0.000926186,1.571126,0.0220617,2.42E-05,927.84,90,0.3948192,1,0,-1001,-8,-404,99,130808263,775949655,927970,90.00484,0.02386851
22-01-2019, 13:21:49 ,0.001120642,0.000926186,1.571126,0.0220617,2.42E-05,927.84,90,0.3948192,1,0,-1001,-8,-404,99,130808263,775949655,927970,90.00484,0.02386851
22-01-2019, 13:21:49 ,0.001120642,0.000926186,1.571126,0.0220617,2.42E-05,927.84,90,0.3948192,1,0,-1001,-8,-404,99,130808263,775949655,927970,90.00607,0.02387496
22-01-2019, 13:21:49 ,0.001160472,0.000974386,1.571152,0.0220617,2.42E-05,927.84,90,0.3948192,1,0,-1001,-8,-404,99,130808263,775949655,927970,90.00607,0.02387496
22-01-2019, 13:21:49 ,0.001160472,0.000974386,1.571152,0.0220617,0.001105033,928.1,90,-0.005228879,1,0,-1001,-8,-404,99,130808263,775949655,927970,90.00607,0.02387496
22-01-2019, 13:21:50 ,0.001185409,0.000982296,1.571165,0.0220617,0.001105033,928.1,90,-0.005228879,1,0,-1001,-8,-404,99,130808263,775949655,927970,90.00607,0.02387496
22-01-2019, 13:21:50 ,0.001185409,0.000982296,1.571165,0.0220617,4.3E-05,928.02,90,0.2366499,1,0,-1001,-8,-404,99,130808263,775949655,927970,90.00607,0.02387496
22-01-2019, 13:21:50 ,0.001185409,0.000982296,1.571165,0.0220617,4.3E-05,928.02,90,0.2366499,0,0,-1001,-8,-404,99,130808263,775949655,927970,90.00607,0.02387496
22-01-2019, 13:21:50 ,0.001185409,0.000982296,1.571165,0.0220617,4.3E-05,928.02,90,0.2366499,0,0,-1001,-8,-404,99,130808263,775949655,927970,90.00607,0.02387496
22-01-2019, 13:21:50 ,0.001185409,0.000982296,1.571165,0.0220617,4.3E-05,928.02,90,0.2366499,0,0,-1001,-8,-404,99,130808263,775949655,927970,90.00951,0.02376772
22-01-2019, 13:21:50 ,0.001205344,0.001008597,1.571182,0.0220617,4.3E-05,928.02,90,0.2366499,0,0,-1001,-8,-404,99,130808263,775949655,927970,90.00951,0.02376772
22-01-2019, 13:21:50 ,0.001205344,0.001008597,1.571182,0.0220617,0.000161715,928.08,90,-0.02262097,0,0,-1001,-8,-404,99,130808263,775949655,927970,90.00951,0.02376772
22-01-2019, 13:21:50 ,0.001228493,0.001038671,1.571199,0.0220617,0.000161715,928.08,90,-0.02262097,0,0,-1001,-8,-404,99,130808263,775949655,927970,90.00951,0.02376772
22-01-2019, 13:21:50 ,0.001228493,0.001038671,1.571199,0.0220617,0.000130679,928,90,-0.3932564,0,0,-1001,-8,-404,99,130808263,775949655,927970,90.00951,0.02376772
22-01-2019, 13:21:50 ,0.001228493,0.001038671,1.571199,0.0220617,0.000130679,928,90,-0.3932564,0,0,-1001,-8,-404,99,130808263,775949655,927970,90.00951,0.02376772
22-01-2019, 13:21:50 ,0.001228493,0.001038671,1.571199,0.0220617,0.000130679,928,90,-0.3932564,0,0,-1001,-8,-404,99,130808263,775949655,927970,90.00951,0.02376772
22-01-2019, 13:21:50 ,0.001228493,0.001038671,1.571199,0.0220617,0.000130679,928,90,-0.3932564,0,0,-1001,-8,-404,99,130808263,775949655,927970,90.01166,0.02379558
22-01-2019, 13:21:50 ,0.001253706,0.001064413,1.571215,0.0220617,0.000130679,928,90,-0.3932564,0,0,-1001,-8,-404,99,130808263,775949655,927970,90.01166,0.02379558
22-01-2019, 13:21:50 ,0.001253706,0.001064413,1.571215,0.0220617,9.64E-05,928.11,90,-0.1792275,0,0,-1001,-8,-404,99,130808263,775949655,927970,90.01166,0.02379558
22-01-2019, 13:21:51 ,0.001291177,0.001091223,1.571233,0.0220617,9.64E-05,928.11,90,-0.1792275,0,0,-1001,-8,-404,99,130808263,775949655,927970,90.01166,0.02379558
22-01-2019, 13:21:51 ,0.001291177,0.001091223,1.571233,0.0220617,8.01E-05,928.02,90,0.5672637,0,0,-1001,-8,-404,99,130808263,775949655,927970,90.01166,0.02379558
22-01-2019, 13:21:51 ,0.001291177,0.001091223,1.571233,0.0220617,8.01E-05,928.02,90,0.5672637,0,0,-1000,-8,-404,99,130808263,775949655,927970,90.01166,0.02379558
22-01-2019, 13:21:51 ,0.001291177,0.001091223,1.571233,0.0220617,8.01E-05,928.02,90,0.5672637,0,0,-1000,-8,-404,99,130808263,775949655,927970,90.01166,0.02379558
22-01-2019, 13:21:51 ,0.001291177,0.001091223,1.571233,0.0220617,8.01E-05,928.02,90,0.5672637,0,0,-1000,-8,-404,99,130808263,775949655,927970,90.01469,0.02382956
22-01-2019, 13:21:51 ,0.001335147,0.001122918,1.571251,0.0220617,8.01E-05,928.02,90,0.5672637,0,0,-1000,-8,-404,99,130808263,775949655,927970,90.01469,0.02382956
22-01-2019, 13:21:51 ,0.001335147,0.001122918,1.571251,0.0220617,7E-05,928.11,90,-0.3555433,0,0,-1000,-8,-404,99,130808263,775949655,927970,90.01469,0.02382956
22-01-2019, 13:21:51 ,0.001349368,0.001156671,1.57127,0.0220617,7E-05,928.11,90,-0.3555433,0,0,-1000,-8,-404,99,130808263,775949655,927970,90.01469,0.02382956
22-01-2019, 13:21:51 ,0.001349368,0.001156671,1.57127,0.0220617,5.96E-05,927.86,90,0.2748066,0,0,-1000,-8,-404,99,130808263,775949655,927970,90.01469,0.02382956
22-01-2019, 13:21:51 ,0.001349368,0.001156671,1.57127,0.0220617,5.96E-05,927.86,90,0.2748066,0,0,-1001,-8,-404,99,130808263,775949655,927970,90.01469,0.02382956
22-01-2019, 13:21:51 ,0.001349368,0.001156671,1.57127,0.0220617,5.96E-05,927.86,90,0.2748066,0,0,-1001,-8,-404,99,130808263,775949655,927970,90.01469,0.02382956
22-01-2019, 13:21:51 ,0.001349368,0.001156671,1.57127,0.0220617,5.96E-05,927.86,90,0.2748066,0,0,-1001,-8,-404,99,130808263,775949655,927970,90.01672,0.02384793
22-01-2019, 13:21:51 ,0.001374622,0.001195823,1.571295,0.0220617,5.96E-05,927.86,90,0.2748066,0,0,-1001,-8,-404,99,130808263,775949655,927970,90.01672,0.02384793
22-01-2019, 13:21:51 ,0.001374622,0.001195823,1.571295,0.0220617,4.62E-05,927.98,90,0.009570408,0,0,-1001,-8,-404,99,130808263,775949655,927970,90.01672,0.02384793
22-01-2019, 13:21:52 ,0.001407875,0.001229314,1.571311,0.0220617,4.62E-05,927.98,90,0.009570408,0,0,-1001,-8,-404,99,130808263,775949655,927970,90.01672,0.02384793
22-01-2019, 13:21:52 ,0.001407875,0.001229314,1.571311,0.0220617,4.02E-05,927.95,90,0.2888708,0,0,-1001,-8,-404,99,130808263,775949655,927970,90.01672,0.02384793
22-01-2019, 13:21:52 ,0.001407875,0.001229314,1.571311,0.0220617,4.02E-05,927.95,90,0.2888708,0,0,-1001,-8,-404,99,130808263,775949655,927970,90.01672,0.02384793
22-01-2019, 13:21:52 ,0.001407875,0.001229314,1.571311,0.0220617,4.02E-05,927.95,90,0.2888708,0,0,-1001,-8,-404,99,130808263,775949655,927970,90.01672,0.02384793
22-01-2019, 13:21:52 ,0.001407875,0.001229314,1.571311,0.0220617,4.02E-05,927.95,90,0.2888708,0,0,-1001,-8,-404,99,130808263,775949655,927970,90.01961,0.02387032
22-01-2019, 13:21:52 ,0.00144426,0.001258941,1.57133,0.0220617,4.02E-05,927.95,90,0.2888708,0,0,-1001,-8,-404,99,130808263,775949655,927970,90.01961,0.02387032
22-01-2019, 13:21:52 ,0.00144426,0.001258941,1.57133,0.0220617,3.8E-05,927.87,90,-0.5032902,0,0,-1001,-8,-404,99,130808263,775949655,927970,90.01961,0.02387032
22-01-2019, 13:21:52 ,0.001473513,0.001287605,1.571338,0.0220617,3.8E-05,927.87,90,-0.5032902,0,0,-1001,-8,-404,99,130808263,775949655,927970,90.01961,0.02387032
22-01-2019, 13:21:52 ,0.001473513,0.001287605,1.571338,0.0220617,3.34E-05,927.95,90,0.1688565,0,0,-1001,-8,-404,99,130808263,775949655,927970,90.01961,0.02387032
22-01-2019, 13:21:52 ,0.001473513,0.001287605,1.571338,0.0220617,3.34E-05,927.95,90,0.1688565,-2,0,-1001,-8,-404,99,130808263,775949655,927970,90.01961,0.02387032
22-01-2019, 13:21:52 ,0.001473513,0.001287605,1.571338,0.0220617,3.34E-05,927.95,90,0.1688565,-2,0,-1001,-8,-404,99,130808263,775949655,927970,90.01961,0.02387032
22-01-2019, 13:21:52 ,0.001473513,0.001287605,1.571338,0.0220617,3.34E-05,927.95,90,0.1688565,-2,0,-1001,-8,-404,99,130808263,775949655,927970,90.02139,0.02388243
22-01-2019, 13:21:52 ,0.001508065,0.001320761,1.571358,0.0220617,3.34E-05,927.95,90,0.1688565,-2,0,-1001,-8,-404,99,130808263,775949655,927970,90.02139,0.02388243
22-01-2019, 13:21:52 ,0.001508065,0.001320761,1.571358,0.0220617,2.66E-05,927.97,90,0.1348556,-2,0,-1001,-8,-404,99,130808263,775949655,927970,90.02139,0.02388243
22-01-2019, 13:21:53 ,0.001523693,0.001340532,1.571373,0.0220617,2.66E-05,927.97,90,0.1348556,-2,0,-1001,-8,-404,99,130808263,775949655,927970,90.02139,0.02388243
22-01-2019, 13:21:53 ,0.001523693,0.001340532,1.571373,0.0220617,2.38E-05,927.87,90,-0.1305054,-2,0,-1001,-8,-404,99,130808263,775949655,927970,90.02139,0.02388243
22-01-2019, 13:21:53 ,0.001523693,0.001340532,1.571373,0.0220617,2.38E-05,927.87,90,-0.1305054,0,0,-1001,-8,-404,99,130808263,775949655,927970,90.02139,0.02388243
22-01-2019, 13:21:53 ,0.001523693,0.001340532,1.571373,0.0220617,2.38E-05,927.87,90,-0.1305054,0,0,-1001,-8,-404,99,130808263,775949655,927970,90.02139,0.02388243
22-01-2019, 13:21:53 ,0.001523693,0.001340532,1.571373,0.0220617,2.38E-05,927.87,90,-0.1305054,0,0,-1001,-8,-404,99,130808263,775949655,927970,90.024,0.02389719
22-01-2019, 13:21:53 ,0.001537067,0.001338578,1.571379,0.0220617,2.38E-05,927.87,90,-0.1305054,0,0,-1001,-8,-404,99,130808263,775949655,927970,90.024,0.02389719
22-01-2019, 13:21:53 ,0.001537067,0.001338578,1.571379,0.0220617,0.000357482,928.02,90,0.3542051,0,0,-1001,-8,-404,99,130808263,775949655,927970,90.024,0.02389719
22-01-2019, 13:21:53 ,0.00155092,0.001378715,1.571393,0.0220617,0.000357482,928.02,90,0.3542051,0,0,-1001,-8,-404,99,130808263,775949655,927970,90.024,0.02389719
