Date, Time, mavlink_attitude_t.roll, mavlink_attitude_t.pitch, mavlink_attitude_t.yaw, mavlink_vfr_hud_t.airspeed, mavlink_vfr_hud_t.groundspeed, mavlink_vfr_hud_t.alt, mavlink_vfr_hud_t.heading, mavlink_vfr_hud_t.climb, mavlink_raw_imu_t.xacc, mavlink_raw_imu_t.yacc, mavlink_raw_imu_t.zacc, mavlink_raw_imu_t.xmag, mavlink_raw_imu_t.ymag, mavlink_raw_imu_t.zmag, mavlink_gps_raw_int_t.lat, mavlink_gps_raw_int_t.lon, mavlink_gps_raw_int_t.alt, mavlink_wind_t.direction, mavlink_wind_t.speed
22-01-2019, 14:47:42 ,-0.006144757,-0.006441874,1.89592,4.304051,0.151246,927.91,108,-0.2331219,0,0,-1000,-43,-402,99,130808302,775949626,928030,137.4137,3.622432
22-01-2019, 14:47:42 ,-0.006144757,-0.006441874,1.89592,4.304051,0.151246,927.91,108,-0.2331219,0,0,-1000,-43,-402,99,130808302,775949626,928030,137.4137,3.622432
22-01-2019, 14:47:42 ,-0.006144757,-0.006441874,1.89592,4.304051,0.151246,927.91,108,-0.2331219,0,0,-1000,-43,-402,99,130808257,775949639,927970,137.4137,3.622432
22-01-2019, 14:47:42 ,-0.006144757,-0.006441874,1.89592,4.304051,0.151246,927.91,108,-0.2331219,0,0,-1000,-43,-402,99,130808257,775949639,927970,137.4137,3.622432
22-01-2019, 14:47:42 ,-0.006144757,-0.006441874,1.89592,4.304051,0.151246,927.91,108,-0.2331219,0,0,-1000,-43,-402,99,130808257,775949639,927970,-180,0
22-01-2019, 14:47:42 ,-0.006144757,-0.006441874,1.89592,4.304051,0.151246,927.91,108,-0.2331219,0,0,-1000,-43,-402,99,130808257,775949639,927970,-180,0
22-01-2019, 14:47:42 ,-0.006144757,-0.006441874,1.89592,4.304051,0.151246,927.91,108,-0.2331219,0,0,-1000,-43,-402,99,130808257,775949639,927970,-180,0
22-01-2019, 14:47:42 ,-0.006144757,-0.006441874,1.89592,4.304051,0.151246,927.91,108,-0.2331219,0,0,-1000,-43,-402,99,130808257,775949639,927970,-180,0
22-01-2019, 14:47:42 ,5.95E-05,0.000497457,1.6784,4.304051,0.151246,927.91,108,-0.2331219,0,0,-1000,-43,-402,99,130808257,775949639,927970,-180,0
22-01-2019, 14:47:42 ,5.95E-05,0.000497457,1.6784,0.0220617,0.02375345,0,96,0.131963,0,0,-1000,-43,-402,99,130808257,775949639,927970,-180,0
22-01-2019, 14:47:42 ,5.95E-05,0.000497457,1.6784,0.0220617,0.02375345,0,96,0.131963,0,0,-1000,-43,-402,99,130808257,775949639,927970,-180,0
22-01-2019, 14:47:42 ,5.95E-05,0.000497457,1.6784,0.0220617,0.02137811,0,96,0.131963,0,0,-1000,-43,-402,99,130808257,775949639,927970,-180,0
22-01-2019, 14:47:42 ,5.95E-05,0.000497457,1.6784,0.0220617,0.02137811,0,96,0.131963,0,0,-1000,-43,-402,99,130808257,775949639,927970,-180,0
22-01-2019, 14:47:42 ,5.95E-05,0.000497457,1.6784,0.0220617,0.0192403,0,96,0.131963,0,0,-1000,-43,-402,99,130808257,775949639,927970,-180,0
22-01-2019, 14:47:42 ,5.95E-05,0.000497457,1.6784,0.0220617,0.0192403,0,96,0.131963,0,0,-1000,-43,-402,99,130808257,775949639,927970,-180,0
22-01-2019, 14:47:42 ,5.95E-05,0.000497457,1.6784,0.0220617,0.01731627,0,96,0.131963,0,0,-1000,-43,-402,99,130808257,775949639,927970,-180,0
22-01-2019, 14:47:42 ,5.95E-05,0.000497457,1.6784,0.0220617,0.01731627,0,96,0.131963,0,0,-1000,-43,-402,99,130808257,775949639,927970,-180,0
22-01-2019, 14:47:42 ,5.95E-05,0.000497457,1.6784,0.0220617,0.01558464,0,96,0.131963,0,0,-1000,-43,-402,99,130808257,775949639,927970,-180,0
22-01-2019, 14:47:42 ,5.95E-05,0.000497457,1.6784,0.0220617,0.01558464,0,96,0.131963,0,0,-1000,-43,-402,99,130808257,775949639,927970,-180,0
22-01-2019, 14:47:42 ,5.95E-05,0.000497457,1.6784,0.0220617,0.01402618,0,96,0.131963,0,0,-1000,-43,-402,99,130808257,775949639,927970,-180,0
22-01-2019, 14:47:42 ,5.95E-05,0.000497457,1.6784,0.0220617,0.01402618,0,96,0.131963,0,0,-1000,-43,-402,99,130808257,775949639,927970,-180,0
22-01-2019, 14:47:42 ,5.95E-05,0.000497457,1.6784,0.0220617,0.01262356,0,96,0.131963,0,0,-1000,-43,-402,99,130808257,775949639,927970,-180,0
22-01-2019, 14:47:42 ,5.95E-05,0.000497457,1.6784,0.0220617,0.01262356,0,96,0.131963,0,0,-1001,-43,-402,99,130808257,775949639,927970,-180,0
22-01-2019, 14:47:42 ,5.95E-05,0.000497457,1.6784,0.0220617,0.01262356,0,96,0.131963,0,0,-1001,-43,-402,99,130808257,775949639,927970,-180,0
22-01-2019, 14:47:42 ,5.95E-05,0.000497457,1.6784,0.0220617,0.01262356,0,96,0.131963,0,0,-1001,-43,-402,99,130808257,775949639,927970,-180,0
22-01-2019, 14:47:42 ,5.95E-05,0.000497457,1.6784,0.0220617,0.01262356,0,96,0.131963,0,0,-1001,-43,-402,99,130808257,775949639,927970,-180,0
22-01-2019, 14:47:42 ,6.33E-05,0.000490936,1.678409,0.0220617,0.01262356,0,96,0.131963,0,0,-1001,-43,-402,99,130808257,775949639,927970,-180,0
22-01-2019, 14:47:42 ,6.33E-05,0.000490936,1.678409,0.0220617,0.009202571,0.16,96,-0.3628155,0,0,-1001,-43,-402,99,130808257,775949639,927970,-180,0
22-01-2019, 14:47:42 ,9.18E-05,0.000257842,1.678425,0.0220617,0.009202571,0.16,96,-0.3628155,0,0,-1001,-43,-402,99,130808257,775949639,927970,-180,0
22-01-2019, 14:47:42 ,9.18E-05,0.000257842,1.678425,0.0220617,0.006708673,-0.06,96,0.5951785,0,0,-1001,-43,-402,99,130808257,775949639,927970,-180,0
22-01-2019, 14:47:42 ,9.18E-05,0.000257842,1.678425,0.0220617,0.006708673,-0.06,96,0.5951785,0,0,-1001,-43,-402,99,130808257,775949639,927970,-180,0
22-01-2019, 14:47:42 ,9.18E-05,0.000257842,1.678425,0.0220617,0.006708673,-0.06,96,0.5951785,0,0,-1001,-43,-402,99,130808257,775949639,927970,-180,0
22-01-2019, 14:47:42 ,9.18E-05,0.000257842,1.678425,0.0220617,0.006708673,-0.06,96,0.5951785,0,0,-1001,-43,-402,99,130808257,775949639,927970,-180,0
22-01-2019, 14:47:42 ,9.18E-05,0.000257842,1.678425,0.0220617,0.006708673,-0.06,96,0.5951785,0,0,-1001,-43,-402,99,130808257,775949639,927970,-180,0
22-01-2019, 14:47:42 ,0.00012518,3.17E-05,1.678444,0.0220617,0.006708673,-0.06,96,0.5951785,0,0,-1001,-43,-402,99,130808257,775949639,927970,-180,0
22-01-2019, 14:47:42 ,0.00012518,3.17E-05,1.678444,0.0220617,0.00440156,0.03,96,-0.7112427,0,0,-1001,-43,-402,99,130808257,775949639,927970,-180,0
22-01-2019, 14:47:43 ,0.000166027,-0.000108689,1.675434,0.0220617,0.00440156,0.03,96,-0.7112427,0,0,-1001,-43,-402,99,130808257,775949639,927970,-180,0
22-01-2019, 14:47:43 ,0.000166027,-0.000108689,1.675434,0.0220617,0.003209326,927.9,95,-0.06761512,0,0,-1001,-43,-402,99,130808257,775949639,927970,-180,0
22-01-2019, 14:47:43 ,0.000166027,-0.000108689,1.675434,0.0220617,0.003209326,927.9,95,-0.06761512,0,0,-1001,-43,-402,99,130808257,775949639,927970,-180,0
22-01-2019, 14:47:43 ,0.000166027,-0.000108689,1.675434,0.0220617,0.003209326,927.9,95,-0.06761512,0,0,-1001,-43,-402,99,130808257,775949639,927970,-180,0
22-01-2019, 14:47:43 ,0.000166027,-0.000108689,1.675434,0.0220617,0.003209326,927.9,95,-0.06761512,0,0,-1001,-43,-402,99,130808257,775949639,927970,-180,0
22-01-2019, 14:47:43 ,0.000166027,-0.000108689,1.675434,0.0220617,0.003209326,927.9,95,-0.06761512,0,0,-1001,-43,-402,99,130808257,775949639,927970,-180,0
22-01-2019, 14:47:43 ,0.000166707,-0.000140201,1.671727,0.0220617,0.003209326,927.9,95,-0.06761512,0,0,-1001,-43,-402,99,130808257,775949639,927970,-180,0
22-01-2019, 14:47:43 ,0.000166707,-0.000140201,1.671727,0.0220617,0.002108074,927.95,95,0.7180898,0,0,-1001,-43,-402,99,130808257,775949639,927970,-180,0
22-01-2019, 14:47:43 ,0.000172797,-0.000137454,1.668597,0.0220617,0.002108074,927.95,95,0.7180898,0,0,-1001,-43,-402,99,130808257,775949639,927970,-180,0
22-01-2019, 14:47:43 ,0.000172797,-0.000137454,1.668597,0.0220617,0.001541292,927.92,95,-0.3089754,0,0,-1001,-43,-402,99,130808257,775949639,927970,-180,0
22-01-2019, 14:47:43 ,0.000172797,-0.000137454,1.668597,0.0220617,0.001541292,927.92,95,-0.3089754,0,0,-1001,-43,-402,99,130808257,775949639,927970,-180,0
22-01-2019, 14:47:43 ,0.000172797,-0.000137454,1.668597,0.0220617,0.001541292,927.92,95,-0.3089754,0,0,-1001,-43,-402,99,130808257,775949639,927970,-180,0
22-01-2019, 14:47:43 ,0.000172797,-0.000137454,1.668597,0.0220617,0.001541292,927.92,95,-0.3089754,0,0,-1001,-43,-402,99,130808257,775949639,927970,-180,0
22-01-2019, 14:47:43 ,0.000172797,-0.000137454,1.668597,0.0220617,0.001541292,927.92,95,-0.3089754,0,0,-1001,-43,-402,99,130808257,775949639,927970,-180,0
22-01-2019, 14:47:43 ,0.000161653,-0.000128317,1.666356,0.0220617,0.001541292,927.92,95,-0.3089754,0,0,-1001,-43,-402,99,130808257,775949639,927970,-180,0
22-01-2019, 14:47:43 ,0.000161653,-0.000128317,1.666356,0.0220617,0.001016062,927.9,95,0.05820035,0,0,-1001,-43,-402,99,130808257,775949639,927970,-180,0
22-01-2019, 14:47:44 ,0.000155362,-9.63E-05,1.664461,0.0220617,0.001016062,927.9,95,0.05820035,0,0,-1001,-43,-402,99,130808257,775949639,927970,-180,0
22-01-2019, 14:47:44 ,0.000155362,-9.63E-05,1.664461,0.0220617,0.00074686,927.89,95,-0.4099702,0,0,-1001,-43,-402,99,130808257,775949639,927970,-180,0
22-01-2019, 14:47:44 ,0.000155362,-9.63E-05,1.664461,0.0220617,0.00074686,927.89,95,-0.4099702,0,0,-1001,-43,-402,99,130808257,775949639,927970,-180,0
22-01-2019, 14:47:44 ,0.000155362,-9.63E-05,1.664461,0.0220617,0.00074686,927.89,95,-0.4099702,0,0,-1001,-43,-402,99,130808257,775949639,927970,-180,0
22-01-2019, 14:47:44 ,0.000155362,-9.63E-05,1.664461,0.0220617,0.00074686,927.89,95,-0.4099702,0,0,-1001,-43,-402,99,130808257,775949639,927970,-180,0
22-01-2019, 14:47:44 ,0.000155362,-9.63E-05,1.664461,0.0220617,0.00074686,927.89,95,-0.4099702,0,0,-1001,-43,-402,99,130808257,775949639,927970,95.28992,0.001900276
22-01-2019, 14:47:44 ,0.000179328,-7.67E-05,1.663112,0.0220617,0.00074686,927.89,95,-0.4099702,0,0,-1001,-43,-402,99,130808257,775949639,927970,95.28992,0.001900276
22-01-2019, 14:47:44 ,0.000179328,-7.67E-05,1.663112,0.0220617,0.002195392,927.8,95,0.540921,0,0,-1001,-43,-402,99,130808257,775949639,927970,95.28992,0.001900276
22-01-2019, 14:47:44 ,0.000197094,-6.96E-05,1.661969,0.0220617,0.002195392,927.8,95,0.540921,0,0,-1001,-43,-402,99,130808257,775949639,927970,95.28992,0.001900276
22-01-2019, 14:47:44 ,0.000197094,-6.96E-05,1.661969,0.0220617,0.003173556,927.79,95,-0.1711747,0,0,-1001,-43,-402,99,130808257,775949639,927970,95.28992,0.001900276
22-01-2019, 14:47:45 ,0.000197094,-6.96E-05,1.661969,0.0220617,0.003173556,927.79,95,-0.1711747,0,0,-1001,-43,-402,99,130808257,775949639,927970,95.28992,0.001900276
22-01-2019, 14:47:45 ,0.000197094,-6.96E-05,1.661969,0.0220617,0.003173556,927.79,95,-0.1711747,0,0,-1001,-43,-402,99,130808257,775949639,927970,95.28992,0.001900276
22-01-2019, 14:47:45 ,0.000197094,-6.96E-05,1.661969,0.0220617,0.003173556,927.79,95,-0.1711747,0,0,-1001,-43,-402,99,130808257,775949639,927970,95.28992,0.001900276
22-01-2019, 14:47:45 ,0.000197094,-6.96E-05,1.661969,0.0220617,0.003173556,927.79,95,-0.1711747,0,0,-1001,-43,-402,99,130808257,775949639,927970,95.23843,0.005256923
22-01-2019, 14:47:45 ,0.000175255,-4.75E-05,1.661143,0.0220617,0.003173556,927.79,95,-0.1711747,0,0,-1001,-43,-402,99,130808257,775949639,927970,95.23843,0.005256923
22-01-2019, 14:47:45 ,0.000175255,-4.75E-05,1.661143,0.0220617,0.00338492,927.82,95,0.2746211,0,0,-1001,-43,-402,99,130808257,775949639,927970,95.23843,0.005256923
22-01-2019, 14:47:45 ,0.000162852,-2.53E-05,1.660448,0.0220617,0.00338492,927.82,95,0.2746211,0,0,-1001,-43,-402,99,130808257,775949639,927970,95.23843,0.005256923
22-01-2019, 14:47:45 ,0.000162852,-2.53E-05,1.660448,0.0220617,0.003666219,928.01,95,0.1302464,0,0,-1001,-43,-402,99,130808257,775949639,927970,95.23843,0.005256923
22-01-2019, 14:47:45 ,0.000162852,-2.53E-05,1.660448,0.0220617,0.003666219,928.01,95,0.1302464,-7,20,-1001,-43,-402,99,130808257,775949639,927970,95.23843,0.005256923
22-01-2019, 14:47:45 ,0.000162852,-2.53E-05,1.660448,0.0220617,0.003666219,928.01,95,0.1302464,-7,20,-1001,-43,-402,99,130808257,775949639,927970,95.23843,0.005256923
22-01-2019, 14:47:45 ,0.000162852,-2.53E-05,1.660448,0.0220617,0.003666219,928.01,95,0.1302464,-7,20,-1001,-43,-402,99,130808257,775949639,927970,95.23843,0.005256923
22-01-2019, 14:47:45 ,0.000162852,-2.53E-05,1.660448,0.0220617,0.003666219,928.01,95,0.1302464,-7,20,-1001,-43,-402,99,130808257,775949639,927970,95.17868,0.009350425
22-01-2019, 14:47:45 ,0.000130887,-3.92E-05,1.659957,0.0220617,0.003666219,928.01,95,0.1302464,-7,20,-1001,-43,-402,99,130808257,775949639,927970,95.17868,0.009350425
22-01-2019, 14:47:45 ,0.000130887,-3.92E-05,1.659957,1.547436,1.646869,928.15,95,0.01882382,-7,20,-1001,-43,-402,99,130808257,775949639,927970,95.17868,0.009350425
22-01-2019, 14:47:46 ,0.000130887,-3.92E-05,1.659957,1.547436,1.646869,928.15,95,0.01882382,-1,-8,-1000,-44,-402,99,130808257,775949639,927970,95.17868,0.009350425
22-01-2019, 14:47:46 ,0.000130887,-3.92E-05,1.659957,1.547436,1.646869,928.15,95,0.01882382,-1,-8,-1000,-44,-402,99,130808258,775949639,927970,95.17868,0.009350425
22-01-2019, 14:47:46 ,0.000130887,-3.92E-05,1.659957,1.547436,1.646869,928.15,95,0.01882382,-1,-8,-1000,-44,-402,99,130808258,775949639,927970,95.17868,0.009350425
22-01-2019, 14:47:46 ,0.000130887,-3.92E-05,1.659957,1.547436,1.646869,928.15,95,0.01882382,-1,-8,-1000,-44,-402,99,130808258,775949639,927970,95.77925,0.6736451
22-01-2019, 14:47:46 ,-9.55E-06,-1.45E-06,1.660285,1.547436,1.646869,928.15,95,0.01882382,-1,-8,-1000,-44,-402,99,130808258,775949639,927970,95.77925,0.6736451
22-01-2019, 14:47:46 ,-9.55E-06,-1.45E-06,1.660285,3.404874,2.3967,928.17,95,-0.05991214,-1,-8,-1000,-44,-402,99,130808258,775949639,927970,95.77925,0.6736451
22-01-2019, 14:47:46 ,-9.55E-06,-1.45E-06,1.660285,3.404874,2.3967,928.17,95,-0.05991214,-1,-8,-1000,-44,-402,99,130808258,775949639,927970,95.77925,0.6736451
22-01-2019, 14:47:46 ,-9.55E-06,-1.45E-06,1.660285,3.404874,2.157059,928.17,95,-0.05991214,-1,-8,-1000,-44,-402,99,130808258,775949639,927970,95.77925,0.6736451
22-01-2019, 14:47:46 ,-1.38E-05,3.77E-05,1.660334,3.404874,2.157059,928.17,95,-0.05991214,-1,-8,-1000,-44,-402,99,130808258,775949639,927970,95.77925,0.6736451
22-01-2019, 14:47:46 ,-1.38E-05,3.77E-05,1.660334,3.404874,1.941382,928.17,95,-0.05991214,-1,-8,-1000,-44,-402,99,130808258,775949639,927970,95.77925,0.6736451
22-01-2019, 14:47:46 ,-1.38E-05,3.77E-05,1.660334,3.404874,1.941382,928.17,95,-0.05991214,0,1,-1001,-44,-402,99,130808258,775949639,927970,95.77925,0.6736451
22-01-2019, 14:47:46 ,-1.38E-05,3.77E-05,1.660334,3.404874,1.941382,928.17,95,-0.05991214,0,1,-1001,-44,-402,99,130808257,775949639,927970,95.77925,0.6736451
22-01-2019, 14:47:46 ,-1.38E-05,3.77E-05,1.660334,3.404874,1.941382,928.17,95,-0.05991214,0,1,-1001,-44,-402,99,130808257,775949639,927970,95.77925,0.6736451
22-01-2019, 14:47:46 ,-1.38E-05,3.77E-05,1.660334,3.404874,1.941382,928.17,95,-0.05991214,0,1,-1001,-44,-402,99,130808257,775949639,927970,95.42414,1.140685
22-01-2019, 14:47:46 ,0.000186541,2.41E-05,1.66066,3.404874,1.941382,928.17,95,-0.05991214,0,1,-1001,-44,-402,99,130808257,775949639,927970,95.42414,1.140685
22-01-2019, 14:47:46 ,0.000186541,2.41E-05,1.66066,3.300855,1.55437,927.92,95,-0.5763121,0,1,-1001,-44,-402,99,130808257,775949639,927970,95.42414,1.140685
22-01-2019, 14:47:47 ,0.000328198,-0.000177622,1.661016,3.300855,1.55437,927.92,95,-0.5763121,0,1,-1001,-44,-402,99,130808257,775949639,927970,95.42414,1.140685
22-01-2019, 14:47:47 ,0.000328198,-0.000177622,1.661016,3.67137,1.700318,927.8,95,-0.2615868,0,1,-1001,-44,-402,99,130808257,775949639,927970,95.42414,1.140685
22-01-2019, 14:47:47 ,0.000328198,-0.000177622,1.661016,3.67137,1.700318,927.8,95,-0.2615868,0,0,-1001,-44,-402,99,130808257,775949639,927970,95.42414,1.140685
22-01-2019, 14:47:47 ,0.000328198,-0.000177622,1.661016,3.67137,1.700318,927.8,95,-0.2615868,0,0,-1001,-44,-402,99,130808257,775949639,927970,95.42414,1.140685
22-01-2019, 14:47:47 ,0.000328198,-0.000177622,1.661016,3.67137,1.700318,927.8,95,-0.2615868,0,0,-1001,-44,-402,99,130808257,775949639,927970,95.42414,1.140685
22-01-2019, 14:47:47 ,0.000328198,-0.000177622,1.661016,3.67137,1.700318,927.8,95,-0.2615868,0,0,-1001,-44,-402,99,130808257,775949639,927970,95.34472,1.570806
22-01-2019, 14:47:47 ,0.000229941,-0.000192399,1.661418,3.67137,1.700318,927.8,95,-0.2615868,0,0,-1001,-44,-402,99,130808257,775949639,927970,95.34472,1.570806
22-01-2019, 14:47:47 ,0.000229941,-0.000192399,1.661418,3.565889,1.149778,928.07,95,-0.277219,0,0,-1001,-44,-402,99,130808257,775949639,927970,95.34472,1.570806
22-01-2019, 14:47:47 ,0.000219282,-0.00016359,1.661833,3.565889,1.149778,928.07,95,-0.277219,0,0,-1001,-44,-402,99,130808257,775949639,927970,95.34472,1.570806
22-01-2019, 14:47:47 ,0.000219282,-0.00016359,1.661833,3.790874,1.213924,928.19,95,0.261346,0,0,-1001,-44,-402,99,130808257,775949639,927970,95.34472,1.570806
22-01-2019, 14:47:47 ,0.000219282,-0.00016359,1.661833,3.790874,1.213924,928.19,95,0.261346,0,0,-1000,-45,-402,99,130808257,775949639,927970,95.34472,1.570806
22-01-2019, 14:47:47 ,0.000219282,-0.00016359,1.661833,3.790874,1.213924,928.19,95,0.261346,0,0,-1000,-45,-402,99,130808258,775949639,927970,95.34472,1.570806
22-01-2019, 14:47:47 ,0.000219282,-0.00016359,1.661833,3.790874,1.213924,928.19,95,0.261346,0,0,-1000,-45,-402,99,130808258,775949639,927970,95.34472,1.570806
22-01-2019, 14:47:47 ,0.000219282,-0.00016359,1.661833,3.790874,1.213924,928.19,95,0.261346,0,0,-1000,-45,-402,99,130808258,775949639,927970,95.29916,2.101883
22-01-2019, 14:47:47 ,0.0002331,-0.000128425,1.662232,3.790874,1.213924,928.19,95,0.261346,0,0,-1000,-45,-402,99,130808258,775949639,927970,95.29916,2.101883
22-01-2019, 14:47:47 ,0.0002331,-0.000128425,1.662232,3.773913,1.098129,927.9,95,-0.003437432,0,0,-1000,-45,-402,99,130808258,775949639,927970,95.29916,2.101883
22-01-2019, 14:47:48 ,0.000206091,-7.55E-05,1.66265,3.773913,1.098129,927.9,95,-0.003437432,0,0,-1000,-45,-402,99,130808258,775949639,927970,95.29916,2.101883
22-01-2019, 14:47:48 ,0.000206091,-7.55E-05,1.66265,3.323997,0.4647018,927.95,95,-0.2921809,0,0,-1000,-45,-402,99,130808258,775949639,927970,95.29916,2.101883
22-01-2019, 14:47:48 ,0.000206091,-7.55E-05,1.66265,3.323997,0.4647018,927.95,95,-0.2921809,0,0,-1001,-45,-402,99,130808258,775949639,927970,95.29916,2.101883
22-01-2019, 14:47:48 ,0.000206091,-7.55E-05,1.66265,3.323997,0.4647018,927.95,95,-0.2921809,0,0,-1001,-45,-402,99,130808258,775949639,927970,95.29916,2.101883
22-01-2019, 14:47:48 ,0.000206091,-7.55E-05,1.66265,3.323997,0.4647018,927.95,95,-0.2921809,0,0,-1001,-45,-402,99,130808258,775949639,927970,95.29916,2.101883
22-01-2019, 14:47:48 ,0.000206091,-7.55E-05,1.66265,3.323997,0.4647018,927.95,95,-0.2921809,0,0,-1001,-45,-402,99,130808258,775949639,927970,95.295,2.363676
22-01-2019, 14:47:48 ,0.000202144,-4.74E-05,1.663066,3.323997,0.4647018,927.95,95,-0.2921809,0,0,-1001,-45,-402,99,130808258,775949639,927970,95.295,2.363676
22-01-2019, 14:47:48 ,0.000202144,-4.74E-05,1.663066,3.778379,0.8380532,928.14,95,-0.252331,0,0,-1001,-45,-402,99,130808258,775949639,927970,95.295,2.363676
22-01-2019, 14:47:48 ,0.000207104,-4.41E-05,1.66351,3.778379,0.8380532,928.14,95,-0.252331,0,0,-1001,-45,-402,99,130808258,775949639,927970,95.295,2.363676
22-01-2019, 14:47:48 ,0.000207104,-4.41E-05,1.66351,3.668727,0.6315087,927.81,95,0.3072215,0,0,-1001,-45,-402,99,130808258,775949639,927970,95.295,2.363676
22-01-2019, 14:47:48 ,0.000207104,-4.41E-05,1.66351,3.668727,0.6315087,927.81,95,0.3072215,0,0,-1001,-45,-401,99,130808258,775949639,927970,95.295,2.363676
22-01-2019, 14:47:48 ,0.000207104,-4.41E-05,1.66351,3.668727,0.6315087,927.81,95,0.3072215,0,0,-1001,-45,-401,99,130808258,775949639,927970,95.295,2.363676
22-01-2019, 14:47:48 ,0.000207104,-4.41E-05,1.66351,3.668727,0.6315087,927.81,95,0.3072215,0,0,-1001,-45,-401,99,130808258,775949639,927970,95.295,2.363676
22-01-2019, 14:47:48 ,0.000207104,-4.41E-05,1.66351,3.668727,0.6315087,927.81,95,0.3072215,0,0,-1001,-45,-401,99,130808258,775949639,927970,95.3073,2.739228
22-01-2019, 14:47:48 ,0.000201679,-2.48E-05,1.663972,3.668727,0.6315087,927.81,95,0.3072215,0,0,-1001,-45,-401,99,130808258,775949639,927970,95.3073,2.739228
22-01-2019, 14:47:48 ,0.000201679,-2.48E-05,1.663972,3.564956,0.4689409,928.15,95,-0.229448,0,0,-1001,-45,-401,99,130808258,775949639,927970,95.3073,2.739228
22-01-2019, 14:47:49 ,0.000189637,-1.03E-06,1.66444,3.564956,0.4689409,928.15,95,-0.229448,0,0,-1001,-45,-401,99,130808258,775949639,927970,95.3073,2.739228
22-01-2019, 14:47:49 ,0.000189637,-1.03E-06,1.66444,3.790443,0.6607338,928.18,95,0.8060757,0,0,-1001,-45,-401,99,130808258,775949639,927970,95.3073,2.739228
22-01-2019, 14:47:49 ,0.000189637,-1.03E-06,1.66444,3.790443,0.6607338,928.18,95,0.8060757,0,0,-1000,-46,-401,99,130808258,775949639,927970,95.3073,2.739228
22-01-2019, 14:47:49 ,0.000189637,-1.03E-06,1.66444,3.790443,0.6607338,928.18,95,0.8060757,0,0,-1000,-46,-401,99,130808258,775949639,927970,95.3073,2.739228
22-01-2019, 14:47:49 ,0.000189637,-1.03E-06,1.66444,3.790443,0.6607338,928.18,95,0.8060757,0,0,-1000,-46,-401,99,130808258,775949639,927970,95.3073,2.739228
22-01-2019, 14:47:49 ,0.000189637,-1.03E-06,1.66444,3.790443,0.6607338,928.18,95,0.8060757,0,0,-1000,-46,-401,99,130808258,775949639,927970,95.32386,2.944782
22-01-2019, 14:47:49 ,0.000179099,1.61E-06,1.664916,3.790443,0.6607338,928.18,95,0.8060757,0,0,-1000,-46,-401,99,130808258,775949639,927970,95.32386,2.944782
22-01-2019, 14:47:49 ,0.000179099,1.61E-06,1.664916,3.368155,0.08040154,928.19,95,-0.3390601,0,0,-1000,-46,-401,99,130808258,775949639,927970,95.32386,2.944782
22-01-2019, 14:47:49 ,0.000181199,-2.62E-06,1.665396,3.368155,0.08040154,928.19,95,-0.3390601,0,0,-1000,-46,-401,99,130808258,775949639,927970,95.32386,2.944782
22-01-2019, 14:47:49 ,0.000181199,-2.62E-06,1.665396,3.362263,0.07538277,928,95,0.1633146,0,0,-1000,-46,-401,99,130808258,775949639,927970,95.32386,2.944782
22-01-2019, 14:47:49 ,0.000181199,-2.62E-06,1.665396,3.362263,0.07538277,928,95,0.1633146,0,0,-1000,-46,-401,99,130808258,775949639,927970,95.32386,2.944782
22-01-2019, 14:47:49 ,0.000181199,-2.62E-06,1.665396,3.362263,0.07538277,928,95,0.1633146,0,0,-1000,-46,-401,99,130808258,775949639,927970,95.32386,2.944782
22-01-2019, 14:47:49 ,0.000181199,-2.62E-06,1.665396,3.362263,0.07538277,928,95,0.1633146,0,0,-1000,-46,-401,99,130808258,775949639,927970,95.32386,2.944782
22-01-2019, 14:47:49 ,0.000181199,-2.62E-06,1.665396,3.362263,0.07538277,928,95,0.1633146,0,0,-1000,-46,-401,99,130808258,775949639,927970,95.35537,3.125335
22-01-2019, 14:47:49 ,0.000188686,-6.86E-06,1.665871,3.362263,0.07538277,928,95,0.1633146,0,0,-1000,-46,-401,99,130808258,775949639,927970,95.35537,3.125335
22-01-2019, 14:47:49 ,0.000188686,-6.86E-06,1.665871,3.789974,0.5592273,927.94,95,0.02578068,0,0,-1000,-46,-401,99,130808258,775949639,927970,95.35537,3.125335
22-01-2019, 14:47:50 ,0.00019292,-2.01E-06,1.666371,3.789974,0.5592273,927.94,95,0.02578068,0,0,-1000,-46,-401,99,130808258,775949639,927970,95.35537,3.125335
22-01-2019, 14:47:50 ,0.00019292,-2.01E-06,1.666371,3.332939,0.009678445,928.13,95,-0.0988259,0,0,-1000,-46,-401,99,130808258,775949639,927970,95.35537,3.125335
22-01-2019, 14:47:50 ,0.00019292,-2.01E-06,1.666371,3.332939,0.009678445,928.13,95,-0.0988259,0,0,-1001,-47,-401,99,130808258,775949639,927970,95.35537,3.125335
22-01-2019, 14:47:50 ,0.00019292,-2.01E-06,1.666371,3.332939,0.009678445,928.13,95,-0.0988259,0,0,-1001,-47,-401,99,130808258,775949639,927970,95.35537,3.125335
22-01-2019, 14:47:50 ,0.00019292,-2.01E-06,1.666371,3.332939,0.009678445,928.13,95,-0.0988259,0,0,-1001,-47,-401,99,130808258,775949639,927970,95.35537,3.125335
22-01-2019, 14:47:50 ,0.00019292,-2.01E-06,1.666371,3.332939,0.009678445,928.13,95,-0.0988259,0,0,-1001,-47,-401,99,130808258,775949639,927970,95.37986,3.200705
22-01-2019, 14:47:50 ,0.000217175,5.74E-06,1.66686,3.332939,0.009678445,928.13,95,-0.0988259,0,0,-1001,-47,-401,99,130808258,775949639,927970,95.37986,3.200705
22-01-2019, 14:47:50 ,0.000217175,5.74E-06,1.66686,3.383433,0.1068708,927.87,95,-0.09624784,0,0,-1001,-47,-401,99,130808258,775949639,927970,95.37986,3.200705
22-01-2019, 14:47:50 ,0.000214039,7.21E-06,1.667352,3.383433,0.1068708,927.87,95,-0.09624784,0,0,-1001,-47,-401,99,130808258,775949639,927970,95.37986,3.200705
22-01-2019, 14:47:50 ,0.000214039,7.21E-06,1.667352,3.708022,0.4361576,927.78,95,-0.2182764,0,0,-1001,-47,-401,99,130808258,775949639,927970,95.37986,3.200705
22-01-2019, 14:47:50 ,0.000214039,7.21E-06,1.667352,3.708022,0.4361576,927.78,95,-0.2182764,0,0,-1001,-47,-401,99,130808258,775949639,927970,95.37986,3.200705
22-01-2019, 14:47:50 ,0.000214039,7.21E-06,1.667352,3.708022,0.4361576,927.78,95,-0.2182764,0,0,-1001,-47,-401,99,130808258,775949639,927970,95.37986,3.200705
22-01-2019, 14:47:50 ,0.000214039,7.21E-06,1.667352,3.708022,0.4361576,927.78,95,-0.2182764,0,0,-1001,-47,-401,99,130808258,775949639,927970,95.37986,3.200705
22-01-2019, 14:47:50 ,0.000214039,7.21E-06,1.667352,3.708022,0.4361576,927.78,95,-0.2182764,0,0,-1001,-47,-401,99,130808258,775949639,927970,95.4231,3.317706
22-01-2019, 14:47:50 ,0.000223251,7.86E-06,1.667854,3.708022,0.4361576,927.78,95,-0.2182764,0,0,-1001,-47,-401,99,130808258,775949639,927970,95.4231,3.317706
22-01-2019, 14:47:50 ,0.000223251,7.86E-06,1.667854,3.15585,0.1784568,927.96,95,0.0739046,0,0,-1001,-47,-401,99,130808258,775949639,927970,95.4231,3.317706
22-01-2019, 14:47:51 ,0.000226062,1.25E-05,1.668362,3.15585,0.1784568,927.96,95,0.0739046,0,0,-1001,-47,-401,99,130808258,775949639,927970,95.4231,3.317706
22-01-2019, 14:47:51 ,0.000226062,1.25E-05,1.668362,3.608351,0.356198,928.18,95,0.1020961,0,0,-1001,-47,-401,99,130808258,775949639,927970,95.4231,3.317706
22-01-2019, 14:47:51 ,0.000226062,1.25E-05,1.668362,3.608351,0.356198,928.18,95,0.1020961,0,0,-1001,-47,-401,99,130808258,775949639,927970,95.4231,3.317706
22-01-2019, 14:47:51 ,0.000226062,1.25E-05,1.668362,3.608351,0.356198,928.18,95,0.1020961,0,0,-1001,-47,-401,99,130808258,775949639,927970,95.4231,3.317706
22-01-2019, 14:47:51 ,0.000226062,1.25E-05,1.668362,3.608351,0.356198,928.18,95,0.1020961,0,0,-1001,-47,-401,99,130808258,775949639,927970,95.4231,3.317706
22-01-2019, 14:47:51 ,0.000226062,1.25E-05,1.668362,3.608351,0.356198,928.18,95,0.1020961,0,0,-1001,-47,-401,99,130808258,775949639,927970,95.45589,3.40223
22-01-2019, 14:47:51 ,0.000223524,1.38E-05,1.668861,3.608351,0.356198,928.18,95,0.1020961,0,0,-1001,-47,-401,99,130808258,775949639,927970,95.45589,3.40223
22-01-2019, 14:47:51 ,0.000223524,1.38E-05,1.668861,3.298842,0.05500775,928.19,95,0.6393607,0,0,-1001,-47,-401,99,130808258,775949639,927970,95.45589,3.40223
22-01-2019, 14:47:51 ,0.000220261,1.54E-05,1.669363,3.298842,0.05500775,928.19,95,0.6393607,0,0,-1001,-47,-401,99,130808258,775949639,927970,95.45589,3.40223
22-01-2019, 14:47:51 ,0.000220261,1.54E-05,1.669363,3.32842,0.02286489,928.02,95,0.3590231,0,0,-1001,-47,-401,99,130808258,775949639,927970,95.45589,3.40223
22-01-2019, 14:47:51 ,0.000220261,1.54E-05,1.669363,3.32842,0.02286489,928.02,95,0.3590231,0,0,-1001,-48,-401,99,130808258,775949639,927970,95.45589,3.40223
22-01-2019, 14:47:51 ,0.000220261,1.54E-05,1.669363,3.32842,0.02286489,928.02,95,0.3590231,0,0,-1001,-48,-401,99,130808258,775949639,927970,95.45589,3.40223
22-01-2019, 14:47:51 ,0.000220261,1.54E-05,1.669363,3.32842,0.02286489,928.02,95,0.3590231,0,0,-1001,-48,-401,99,130808258,775949639,927970,95.45589,3.40223
22-01-2019, 14:47:51 ,0.000220261,1.54E-05,1.669363,3.32842,0.02286489,928.02,95,0.3590231,0,0,-1001,-48,-401,99,130808258,775949639,927970,95.50574,3.452214
22-01-2019, 14:47:51 ,0.000223807,3.34E-05,1.669868,3.32842,0.02286489,928.02,95,0.3590231,0,0,-1001,-48,-401,99,130808258,775949639,927970,95.50574,3.452214
22-01-2019, 14:47:51 ,0.000223807,3.34E-05,1.669868,3.621207,0.3336973,927.91,95,-0.4571773,0,0,-1001,-48,-401,99,130808258,775949639,927970,95.50574,3.452214
22-01-2019, 14:47:51 ,0.000219453,2.81E-05,1.670373,3.621207,0.3336973,927.91,95,-0.4571773,0,0,-1001,-48,-401,99,130808258,775949639,927970,95.50574,3.452214
22-01-2019, 14:47:51 ,0.000219453,2.81E-05,1.670373,3.59022,0.2492108,928.12,95,-0.4408495,0,0,-1001,-48,-401,99,130808258,775949639,927970,95.50574,3.452214
22-01-2019, 14:47:52 ,0.000219453,2.81E-05,1.670373,3.59022,0.2492108,928.12,95,-0.4408495,0,0,-1000,-48,-401,99,130808258,775949639,927970,95.50574,3.452214
22-01-2019, 14:47:52 ,0.000219453,2.81E-05,1.670373,3.59022,0.2492108,928.12,95,-0.4408495,0,0,-1000,-48,-401,99,130808258,775949639,927970,95.50574,3.452214
22-01-2019, 14:47:52 ,0.000219453,2.81E-05,1.670373,3.59022,0.2492108,928.12,95,-0.4408495,0,0,-1000,-48,-401,99,130808258,775949639,927970,95.50574,3.452214
22-01-2019, 14:47:52 ,0.000219453,2.81E-05,1.670373,3.59022,0.2492108,928.12,95,-0.4408495,0,0,-1000,-48,-401,99,130808258,775949639,927970,95.54128,3.483727
22-01-2019, 14:47:52 ,0.000194531,2.36E-05,1.670868,3.59022,0.2492108,928.12,95,-0.4408495,0,0,-1000,-48,-401,99,130808258,775949639,927970,95.54128,3.483727
22-01-2019, 14:47:52 ,0.000194531,2.36E-05,1.670868,3.705998,0.3219261,928,95,0.03953037,0,0,-1000,-48,-401,99,130808258,775949639,927970,95.54128,3.483727
22-01-2019, 14:47:52 ,0.000187099,1.16E-05,1.671371,3.705998,0.3219261,928,95,0.03953037,0,0,-1000,-48,-401,99,130808258,775949639,927970,95.54128,3.483727
22-01-2019, 14:47:52 ,0.000187099,1.16E-05,1.671371,3.856159,0.4203991,927.77,95,0.1220285,0,0,-1000,-48,-401,99,130808258,775949639,927970,95.54128,3.483727
22-01-2019, 14:47:52 ,0.000187099,1.16E-05,1.671371,3.856159,0.4203991,927.77,95,0.1220285,0,0,-999,-49,-401,99,130808258,775949639,927970,95.54128,3.483727
22-01-2019, 14:47:52 ,0.000187099,1.16E-05,1.671371,3.856159,0.4203991,927.77,95,0.1220285,0,0,-999,-49,-401,99,130808258,775949639,927970,95.54128,3.483727
22-01-2019, 14:47:52 ,0.000187099,1.16E-05,1.671371,3.856159,0.4203991,927.77,95,0.1220285,0,0,-999,-49,-401,99,130808258,775949639,927970,95.54128,3.483727
22-01-2019, 14:47:52 ,0.000187099,1.16E-05,1.671371,3.856159,0.4203991,927.77,95,0.1220285,0,0,-999,-49,-401,99,130808258,775949639,927970,95.58151,3.575732
22-01-2019, 14:47:52 ,0.000234219,1.29E-05,1.671883,3.856159,0.4203991,927.77,95,0.1220285,0,0,-999,-49,-401,99,130808258,775949639,927970,95.58151,3.575732
22-01-2019, 14:47:52 ,0.000234219,1.29E-05,1.671883,3.216167,0.2914372,928.06,95,0.08932585,0,0,-999,-49,-401,99,130808258,775949639,927970,95.58151,3.575732
22-01-2019, 14:47:52 ,0.000250958,2.19E-05,1.672391,3.216167,0.2914372,928.06,95,0.08932585,0,0,-999,-49,-401,99,130808258,775949639,927970,95.58151,3.575732
22-01-2019, 14:47:52 ,0.000250958,2.19E-05,1.672391,3.634353,0.2126778,927.9,95,0.4447606,0,0,-999,-49,-401,99,130808258,775949639,927970,95.58151,3.575732
22-01-2019, 14:47:53 ,0.000250958,2.19E-05,1.672391,3.634353,0.2126778,927.9,95,0.4447606,0,0,-1001,-49,-401,99,130808258,775949639,927970,95.58151,3.575732
22-01-2019, 14:47:53 ,0.000250958,2.19E-05,1.672391,3.634353,0.2126778,927.9,95,0.4447606,0,0,-1001,-49,-401,99,130808258,775949639,927970,95.58151,3.575732
22-01-2019, 14:47:53 ,0.000250958,2.19E-05,1.672391,3.634353,0.2126778,927.9,95,0.4447606,0,0,-1001,-49,-401,99,130808258,775949639,927970,95.58151,3.575732
22-01-2019, 14:47:53 ,0.000250958,2.19E-05,1.672391,3.634353,0.2126778,927.9,95,0.4447606,0,0,-1001,-49,-401,99,130808258,775949639,927970,95.58151,3.575732
22-01-2019, 14:47:53 ,0.000240257,1.34E-05,1.672885,3.634353,0.2126778,927.9,95,0.4447606,0,0,-1001,-49,-401,99,130808258,775949639,927970,95.58151,3.575732
22-01-2019, 14:47:53 ,0.000240257,1.34E-05,1.672885,3.383742,0.1060276,927.87,95,-0.2953656,0,0,-1001,-49,-401,99,130808258,775949639,927970,95.58151,3.575732
22-01-2019, 14:47:53 ,0.000225761,3.71E-05,1.673385,3.383742,0.1060276,927.87,95,-0.2953656,0,0,-1001,-49,-401,99,130808258,775949639,927970,95.58151,3.575732
22-01-2019, 14:47:53 ,0.000225761,3.71E-05,1.673385,3.474853,0.03870499,928.03,95,0.1986377,0,0,-1001,-49,-401,99,130808258,775949639,927970,95.58151,3.575732
22-01-2019, 14:47:53 ,0.000225761,3.71E-05,1.673385,3.474853,0.03870499,928.03,95,0.1986377,0,0,-1001,-49,-401,99,130808258,775949639,927970,95.58151,3.575732
22-01-2019, 14:47:53 ,0.000225761,3.71E-05,1.673385,3.474853,0.03870499,928.03,95,0.1986377,0,0,-1001,-49,-401,99,130808258,775949639,927970,95.58151,3.575732
22-01-2019, 14:47:53 ,0.000225761,3.71E-05,1.673385,3.474853,0.03870499,928.03,95,0.1986377,0,0,-1001,-49,-401,99,130808258,775949639,927970,95.58151,3.575732
22-01-2019, 14:47:53 ,0.000225761,3.71E-05,1.673385,3.474853,0.03870499,928.03,95,0.1986377,0,0,-1001,-49,-401,99,130808258,775949639,927970,95.58151,3.575732
22-01-2019, 14:47:53 ,0.000212694,4.79E-05,1.673889,3.474853,0.03870499,928.03,95,0.1986377,0,0,-1001,-49,-401,99,130808258,775949639,927970,95.58151,3.575732
22-01-2019, 14:47:53 ,0.000212694,4.79E-05,1.673889,3.82465,0.3578236,927.81,95,0.06045493,0,0,-1001,-49,-401,99,130808258,775949639,927970,95.58151,3.575732
22-01-2019, 14:47:53 ,0.000214631,6.14E-05,1.674383,3.82465,0.3578236,927.81,95,0.06045493,0,0,-1001,-49,-401,99,130808258,775949639,927970,95.58151,3.575732
22-01-2019, 14:47:53 ,0.000214631,6.14E-05,1.674383,3.692145,0.1467889,927.93,95,-0.09759154,0,0,-1001,-49,-401,99,130808258,775949639,927970,95.58151,3.575732
22-01-2019, 14:47:54 ,0.000214631,6.14E-05,1.674383,3.692145,0.1467889,927.93,95,-0.09759154,0,0,-1001,-50,-401,99,130808258,775949639,927970,95.58151,3.575732
22-01-2019, 14:47:54 ,0.000214631,6.14E-05,1.674383,3.692145,0.1467889,927.93,95,-0.09759154,0,0,-1001,-50,-401,99,130808258,775949639,927970,95.58151,3.575732
22-01-2019, 14:47:54 ,0.000214631,6.14E-05,1.674383,3.692145,0.1467889,927.93,95,-0.09759154,0,0,-1001,-50,-401,99,130808258,775949639,927970,95.58151,3.575732
22-01-2019, 14:47:54 ,0.000214631,6.14E-05,1.674383,3.692145,0.1467889,927.93,95,-0.09759154,0,0,-1001,-50,-401,99,130808258,775949639,927970,95.58151,3.575732
22-01-2019, 14:47:54 ,0.000237588,6.99E-05,1.674889,3.692145,0.1467889,927.93,95,-0.09759154,0,0,-1001,-50,-401,99,130808258,775949639,927970,95.58151,3.575732
22-01-2019, 14:47:54 ,0.000237588,6.99E-05,1.674889,3.149459,0.4229557,928.1,95,0.0267729,0,0,-1001,-50,-401,99,130808258,775949639,927970,95.58151,3.575732
22-01-2019, 14:47:54 ,0.000281077,5.45E-05,1.675399,3.149459,0.4229557,928.1,95,0.0267729,0,0,-1001,-50,-401,99,130808258,775949639,927970,95.58151,3.575732
22-01-2019, 14:47:54 ,0.000281077,5.45E-05,1.675399,3.605613,0.1552483,928.13,95,0.2936383,0,0,-1001,-50,-401,99,130808258,775949639,927970,95.58151,3.575732
22-01-2019, 14:47:54 ,0.000281077,5.45E-05,1.675399,3.605613,0.1552483,928.13,95,0.2936383,0,0,-1001,-50,-401,99,130808258,775949639,927970,95.58151,3.575732
22-01-2019, 14:47:54 ,0.000281077,5.45E-05,1.675399,3.605613,0.1552483,928.13,95,0.2936383,0,0,-1001,-50,-401,99,130808260,775949639,927970,95.58151,3.575732
22-01-2019, 14:47:54 ,0.000281077,5.45E-05,1.675399,3.605613,0.1552483,928.13,95,0.2936383,0,0,-1001,-50,-401,99,130808260,775949639,927970,95.58151,3.575732
22-01-2019, 14:47:54 ,0.000281077,5.45E-05,1.675399,3.605613,0.1552483,928.13,95,0.2936383,0,0,-1001,-50,-401,99,130808260,775949639,927970,95.58151,3.575732
22-01-2019, 14:47:54 ,0.000289866,3.96E-05,1.675898,3.605613,0.1552483,928.13,95,0.2936383,0,0,-1001,-50,-401,99,130808260,775949639,927970,95.58151,3.575732
22-01-2019, 14:47:54 ,0.000289866,3.96E-05,1.675898,3.37318,0.1262532,928.16,96,-0.1718648,0,0,-1001,-50,-401,99,130808260,775949639,927970,95.58151,3.575732
22-01-2019, 14:47:54 ,0.000285029,3.46E-05,1.676409,3.37318,0.1262532,928.16,96,-0.1718648,0,0,-1001,-50,-401,99,130808260,775949639,927970,95.58151,3.575732
22-01-2019, 14:47:54 ,0.000285029,3.46E-05,1.676409,3.36473,0.1021453,928,96,0.4007299,0,0,-1001,-50,-401,99,130808260,775949639,927970,95.58151,3.575732
22-01-2019, 14:47:55 ,0.000285029,3.46E-05,1.676409,3.36473,0.1021453,928,96,0.4007299,0,0,-1001,-51,-401,99,130808260,775949639,927970,95.58151,3.575732
22-01-2019, 14:47:55 ,0.000285029,3.46E-05,1.676409,3.36473,0.1021453,928,96,0.4007299,0,0,-1001,-51,-401,99,130808260,775949639,927970,95.58151,3.575732
22-01-2019, 14:47:55 ,0.000285029,3.46E-05,1.676409,3.36473,0.1021453,928,96,0.4007299,0,0,-1001,-51,-401,99,130808260,775949639,927970,95.58151,3.575732
22-01-2019, 14:47:55 ,0.000285029,3.46E-05,1.676409,3.36473,0.1021453,928,96,0.4007299,0,0,-1001,-51,-401,99,130808260,775949639,927970,95.65833,3.588713
22-01-2019, 14:47:55 ,0.000284229,3.92E-05,1.676917,3.36473,0.1021453,928,96,0.4007299,0,0,-1001,-51,-401,99,130808260,775949639,927970,95.65833,3.588713
22-01-2019, 14:47:55 ,0.000284229,3.92E-05,1.676917,3.286705,0.1556363,927.93,96,0.04059118,0,0,-1001,-51,-401,99,130808260,775949639,927970,95.65833,3.588713
22-01-2019, 14:47:55 ,0.000295491,3.25E-05,1.677424,3.286705,0.1556363,927.93,96,0.04059118,0,0,-1001,-51,-401,99,130808260,775949639,927970,95.65833,3.588713
22-01-2019, 14:47:55 ,0.000295491,3.25E-05,1.677424,3.059961,0.3466859,927.8,96,-0.2772291,0,0,-1001,-51,-401,99,130808260,775949639,927970,95.65833,3.588713
22-01-2019, 14:47:55 ,0.000295491,3.25E-05,1.677424,3.059961,0.3466859,927.8,96,-0.2772291,0,0,-1001,-51,-401,99,130808260,775949639,927970,95.65833,3.588713
22-01-2019, 14:47:55 ,0.000295491,3.25E-05,1.677424,3.059961,0.3466859,927.8,96,-0.2772291,0,0,-1001,-51,-401,99,130808260,775949639,927970,95.65833,3.588713
22-01-2019, 14:47:55 ,0.000295491,3.25E-05,1.677424,3.059961,0.3466859,927.8,96,-0.2772291,0,0,-1001,-51,-401,99,130808260,775949639,927970,95.65833,3.588713
22-01-2019, 14:47:55 ,0.000295491,3.25E-05,1.677424,3.059961,0.3466859,927.8,96,-0.2772291,0,0,-1001,-51,-401,99,130808260,775949639,927970,95.75735,3.533362
22-01-2019, 14:47:55 ,0.000279035,3.19E-05,1.677929,3.059961,0.3466859,927.8,96,-0.2772291,0,0,-1001,-51,-401,99,130808260,775949639,927970,95.75735,3.533362
22-01-2019, 14:47:55 ,0.000279035,3.19E-05,1.677929,3.293788,0.01047489,928.1,96,-0.1251834,0,0,-1001,-51,-401,99,130808260,775949639,927970,95.75735,3.533362
22-01-2019, 14:47:55 ,0.000282986,3.79E-05,1.678429,3.293788,0.01047489,928.1,96,-0.1251834,0,0,-1001,-51,-401,99,130808260,775949639,927970,95.75735,3.533362
22-01-2019, 14:47:55 ,0.000282986,3.79E-05,1.678429,3.325966,0.03278862,928.14,96,0.2192514,0,0,-1001,-51,-401,99,130808260,775949639,927970,95.75735,3.533362
22-01-2019, 14:47:56 ,0.000282986,3.79E-05,1.678429,3.325966,0.03278862,928.14,96,0.2192514,0,0,-1001,-51,-401,99,130808260,775949639,927970,95.75735,3.533362
22-01-2019, 14:47:56 ,0.000282986,3.79E-05,1.678429,3.325966,0.03278862,928.14,96,0.2192514,0,0,-1001,-51,-401,99,130808260,775949639,927970,95.75735,3.533362
22-01-2019, 14:47:56 ,0.000282986,3.79E-05,1.678429,3.325966,0.03278862,928.14,96,0.2192514,0,0,-1001,-51,-401,99,130808260,775949639,927970,95.75735,3.533362
22-01-2019, 14:47:56 ,0.000282986,3.79E-05,1.678429,3.325966,0.03278862,928.14,96,0.2192514,0,0,-1001,-51,-401,99,130808260,775949639,927970,95.82476,3.546241
22-01-2019, 14:47:56 ,0.000256875,4.21E-05,1.678935,3.325966,0.03278862,928.14,96,0.2192514,0,0,-1001,-51,-401,99,130808260,775949639,927970,95.82476,3.546241
22-01-2019, 14:47:56 ,0.000256875,4.21E-05,1.678935,3.006264,0.2925332,928.13,96,-0.1164792,0,0,-1001,-51,-401,99,130808260,775949639,927970,95.82476,3.546241
22-01-2019, 14:47:56 ,0.000246658,5.13E-05,1.679437,3.006264,0.2925332,928.13,96,-0.1164792,0,0,-1001,-51,-401,99,130808260,775949639,927970,95.82476,3.546241
22-01-2019, 14:47:56 ,0.000246658,5.13E-05,1.679437,3.545212,0.3153603,928.01,96,0.003786171,0,0,-1001,-51,-401,99,130808260,775949639,927970,95.82476,3.546241
22-01-2019, 14:47:56 ,0.000246658,5.13E-05,1.679437,3.545212,0.3153603,928.01,96,0.003786171,0,0,-1000,-52,-401,99,130808260,775949639,927970,95.82476,3.546241
22-01-2019, 14:47:56 ,0.000246658,5.13E-05,1.679437,3.545212,0.3153603,928.01,96,0.003786171,0,0,-1000,-52,-401,99,130808260,775949639,927970,95.82476,3.546241
22-01-2019, 14:47:56 ,0.000246658,5.13E-05,1.679437,3.545212,0.3153603,928.01,96,0.003786171,0,0,-1000,-52,-401,99,130808260,775949639,927970,95.82476,3.546241
22-01-2019, 14:47:56 ,0.000246658,5.13E-05,1.679437,3.545212,0.3153603,928.01,96,0.003786171,0,0,-1000,-52,-401,99,130808260,775949639,927970,95.92065,3.571194
22-01-2019, 14:47:56 ,0.000234637,4.43E-05,1.679938,3.545212,0.3153603,928.01,96,0.003786171,0,0,-1000,-52,-401,99,130808260,775949639,927970,95.92065,3.571194
22-01-2019, 14:47:56 ,0.000234637,4.43E-05,1.679938,3.691106,0.4227366,928.1,96,-0.3291992,0,0,-1000,-52,-401,99,130808260,775949639,927970,95.92065,3.571194
22-01-2019, 14:47:56 ,0.000251203,4.2E-05,1.680446,3.691106,0.4227366,928.1,96,-0.3291992,0,0,-1000,-52,-401,99,130808260,775949639,927970,95.92065,3.571194
22-01-2019, 14:47:56 ,0.000251203,4.2E-05,1.680446,3.278119,0.1017306,927.95,96,0.3204112,0,0,-1000,-52,-401,99,130808260,775949639,927970,95.92065,3.571194
22-01-2019, 14:47:57 ,0.000251203,4.2E-05,1.680446,3.278119,0.1017306,927.95,96,0.3204112,0,0,-1001,-52,-401,99,130808260,775949639,927970,95.92065,3.571194
22-01-2019, 14:47:57 ,0.000251203,4.2E-05,1.680446,3.278119,0.1017306,927.95,96,0.3204112,0,0,-1001,-52,-401,99,130808260,775949639,927970,95.92065,3.571194
22-01-2019, 14:47:57 ,0.000251203,4.2E-05,1.680446,3.278119,0.1017306,927.95,96,0.3204112,0,0,-1001,-52,-401,99,130808260,775949639,927970,95.92065,3.571194
22-01-2019, 14:47:57 ,0.000251203,4.2E-05,1.680446,3.278119,0.1017306,927.95,96,0.3204112,0,0,-1001,-52,-401,99,130808260,775949639,927970,95.97935,3.570089
22-01-2019, 14:47:57 ,0.000241846,4.68E-05,1.680949,3.278119,0.1017306,927.95,96,0.3204112,0,0,-1001,-52,-401,99,130808260,775949639,927970,95.97935,3.570089
22-01-2019, 14:47:57 ,0.000241846,4.68E-05,1.680949,3.365012,0.05357651,927.79,96,-0.55014,0,0,-1001,-52,-401,99,130808260,775949639,927970,95.97935,3.570089
22-01-2019, 14:47:57 ,0.000258952,7.82E-05,1.681452,3.365012,0.05357651,927.79,96,-0.55014,0,0,-1001,-52,-401,99,130808260,775949639,927970,95.97935,3.570089
22-01-2019, 14:47:57 ,0.000258952,7.82E-05,1.681452,3.465929,0.1687845,928.02,96,-0.2288651,0,0,-1001,-52,-401,99,130808260,775949639,927970,95.97935,3.570089
22-01-2019, 14:47:57 ,0.000258952,7.82E-05,1.681452,3.465929,0.1687845,928.02,96,-0.2288651,0,0,-1000,-53,-401,99,130808260,775949639,927970,95.97935,3.570089
22-01-2019, 14:47:57 ,0.000258952,7.82E-05,1.681452,3.465929,0.1687845,928.02,96,-0.2288651,0,0,-1000,-53,-401,99,130808260,775949639,927970,95.97935,3.570089
22-01-2019, 14:47:57 ,0.000258952,7.82E-05,1.681452,3.465929,0.1687845,928.02,96,-0.2288651,0,0,-1000,-53,-401,99,130808260,775949639,927970,95.97935,3.570089
22-01-2019, 14:47:57 ,0.000258952,7.82E-05,1.681452,3.465929,0.1687845,928.02,96,-0.2288651,0,0,-1000,-53,-401,99,130808260,775949639,927970,96.06701,3.606395
22-01-2019, 14:47:57 ,0.000259418,8.14E-05,1.681946,3.465929,0.1687845,928.02,96,-0.2288651,0,0,-1000,-53,-401,99,130808260,775949639,927970,96.06701,3.606395
22-01-2019, 14:47:57 ,0.000259418,8.14E-05,1.681946,3.322579,0.01265091,927.95,96,0.118319,0,0,-1000,-53,-401,99,130808260,775949639,927970,96.06701,3.606395
22-01-2019, 14:47:57 ,0.000263017,6.73E-05,1.682454,3.322579,0.01265091,927.95,96,0.118319,0,0,-1000,-53,-401,99,130808260,775949639,927970,96.06701,3.606395
22-01-2019, 14:47:57 ,0.000263017,6.73E-05,1.682454,3.078887,0.2655698,928.08,96,0.09977476,0,0,-1000,-53,-401,99,130808260,775949639,927970,96.06701,3.606395
22-01-2019, 14:47:58 ,0.000263017,6.73E-05,1.682454,3.078887,0.2655698,928.08,96,0.09977476,0,0,-1000,-53,-401,99,130808260,775949639,927970,96.06701,3.606395
22-01-2019, 14:47:58 ,0.000263017,6.73E-05,1.682454,3.078887,0.2655698,928.08,96,0.09977476,0,0,-1000,-53,-401,99,130808260,775949639,927970,96.06701,3.606395
22-01-2019, 14:47:58 ,0.000263017,6.73E-05,1.682454,3.078887,0.2655698,928.08,96,0.09977476,0,0,-1000,-53,-401,99,130808260,775949639,927970,96.06701,3.606395
22-01-2019, 14:47:58 ,0.000263017,6.73E-05,1.682454,3.078887,0.2655698,928.08,96,0.09977476,0,0,-1000,-53,-401,99,130808260,775949639,927970,96.11777,3.565716
22-01-2019, 14:47:58 ,0.000287694,7.04E-05,1.682962,3.078887,0.2655698,928.08,96,0.09977476,0,0,-1000,-53,-401,99,130808260,775949639,927970,96.11777,3.565716
22-01-2019, 14:47:58 ,0.000287694,7.04E-05,1.682962,3.544678,0.287259,927.96,96,-0.4977884,0,0,-1000,-53,-401,99,130808260,775949639,927970,96.11777,3.565716
22-01-2019, 14:47:58 ,0.000332312,8.65E-05,1.68346,3.544678,0.287259,927.96,96,-0.4977884,0,0,-1000,-53,-401,99,130808260,775949639,927970,96.11777,3.565716
22-01-2019, 14:47:58 ,0.000332312,8.65E-05,1.68346,3.5526,0.2569709,928.36,96,-0.13991,0,0,-1000,-53,-401,99,130808260,775949639,927970,96.11777,3.565716
22-01-2019, 14:47:58 ,0.000332312,8.65E-05,1.68346,3.5526,0.2569709,928.36,96,-0.13991,0,0,-1000,-53,-400,99,130808260,775949639,927970,96.11777,3.565716
22-01-2019, 14:47:58 ,0.000332312,8.65E-05,1.68346,3.5526,0.2569709,928.36,96,-0.13991,0,0,-1000,-53,-400,99,130808260,775949639,927970,96.11777,3.565716
22-01-2019, 14:47:58 ,0.000332312,8.65E-05,1.68346,3.5526,0.2569709,928.36,96,-0.13991,0,0,-1000,-53,-400,99,130808260,775949639,927970,96.11777,3.565716
22-01-2019, 14:47:58 ,0.000332312,8.65E-05,1.68346,3.5526,0.2569709,928.36,96,-0.13991,0,0,-1000,-53,-400,99,130808260,775949639,927970,96.20119,3.618438
22-01-2019, 14:47:58 ,0.000355126,9.72E-05,1.683963,3.5526,0.2569709,928.36,96,-0.13991,0,0,-1000,-53,-400,99,130808260,775949639,927970,96.20119,3.618438
22-01-2019, 14:47:58 ,0.000355126,9.72E-05,1.683963,3.624845,0.2751033,928.12,96,-0.7736032,0,0,-1000,-53,-400,99,130808260,775949639,927970,96.20119,3.618438
22-01-2019, 14:47:58 ,0.000332255,9.04E-05,1.684472,3.624845,0.2751033,928.12,96,-0.7736032,0,0,-1000,-53,-400,99,130808260,775949639,927970,96.20119,3.618438
22-01-2019, 14:47:58 ,0.000332255,9.04E-05,1.684472,3.818173,0.4288587,928.04,96,0.06525957,0,0,-1000,-53,-400,99,130808260,775949639,927970,96.20119,3.618438
22-01-2019, 14:47:59 ,0.000332255,9.04E-05,1.684472,3.818173,0.4288587,928.04,96,0.06525957,0,0,-1000,-54,-400,99,130808260,775949639,927970,96.20119,3.618438
22-01-2019, 14:47:59 ,0.000332255,9.04E-05,1.684472,3.818173,0.4288587,928.04,96,0.06525957,0,0,-1000,-54,-400,99,130808260,775949639,927970,96.20119,3.618438
22-01-2019, 14:47:59 ,0.000332255,9.04E-05,1.684472,3.818173,0.4288587,928.04,96,0.06525957,0,0,-1000,-54,-400,99,130808260,775949639,927970,96.20119,3.618438
22-01-2019, 14:47:59 ,0.000332255,9.04E-05,1.684472,3.818173,0.4288587,928.04,96,0.06525957,0,0,-1000,-54,-400,99,130808260,775949639,927970,96.25801,3.696664
22-01-2019, 14:47:59 ,0.000304671,9.22E-05,1.684978,3.818173,0.4288587,928.04,96,0.06525957,0,0,-1000,-54,-400,99,130808260,775949639,927970,96.25801,3.696664
22-01-2019, 14:47:59 ,0.000304671,9.22E-05,1.684978,3.716304,0.2256877,928.17,96,-0.1186062,0,0,-1000,-54,-400,99,130808260,775949639,927970,96.25801,3.696664
22-01-2019, 14:47:59 ,0.000280908,0.000113733,1.685483,3.716304,0.2256877,928.17,96,-0.1186062,0,0,-1000,-54,-400,99,130808260,775949639,927970,96.25801,3.696664
22-01-2019, 14:47:59 ,0.000280908,0.000113733,1.685483,3.637525,0.1271447,927.81,96,0.192477,0,0,-1000,-54,-400,99,130808260,775949639,927970,96.25801,3.696664
22-01-2019, 14:47:59 ,0.000280908,0.000113733,1.685483,3.637525,0.1271447,927.81,96,0.192477,0,0,-999,-54,-400,99,130808260,775949639,927970,96.25801,3.696664
22-01-2019, 14:47:59 ,0.000280908,0.000113733,1.685483,3.637525,0.1271447,927.81,96,0.192477,0,0,-999,-54,-400,99,130808260,775949639,927970,96.25801,3.696664
22-01-2019, 14:47:59 ,0.000280908,0.000113733,1.685483,3.637525,0.1271447,927.81,96,0.192477,0,0,-999,-54,-400,99,130808260,775949639,927970,96.25801,3.696664
22-01-2019, 14:47:59 ,0.000280908,0.000113733,1.685483,3.637525,0.1271447,927.81,96,0.192477,0,0,-999,-54,-400,99,130808260,775949639,927970,96.3371,3.772963
22-01-2019, 14:47:59 ,0.000252809,0.000123965,1.685986,3.637525,0.1271447,927.81,96,0.192477,0,0,-999,-54,-400,99,130808260,775949639,927970,96.3371,3.772963
22-01-2019, 14:47:59 ,0.000252809,0.000123965,1.685986,3.876183,0.3527499,927.8,96,-0.7214753,0,0,-999,-54,-400,99,130808260,775949639,927970,96.3371,3.772963
22-01-2019, 14:47:59 ,0.00025889,0.000122338,1.686487,3.876183,0.3527499,927.8,96,-0.7214753,0,0,-999,-54,-400,99,130808260,775949639,927970,96.3371,3.772963
22-01-2019, 14:47:59 ,0.00025889,0.000122338,1.686487,3.937289,0.3531037,927.98,96,0.06407417,0,0,-999,-54,-400,99,130808260,775949639,927970,96.3371,3.772963
22-01-2019, 14:48:00 ,0.00025889,0.000122338,1.686487,3.937289,0.3531037,927.98,96,0.06407417,0,0,-1001,-55,-400,99,130808260,775949639,927970,96.3371,3.772963
22-01-2019, 14:48:00 ,0.00025889,0.000122338,1.686487,3.937289,0.3531037,927.98,96,0.06407417,0,0,-1001,-55,-400,99,130808260,775949639,927970,96.3371,3.772963
22-01-2019, 14:48:00 ,0.00025889,0.000122338,1.686487,3.937289,0.3531037,927.98,96,0.06407417,0,0,-1001,-55,-400,99,130808260,775949639,927970,96.3371,3.772963
22-01-2019, 14:48:00 ,0.00025889,0.000122338,1.686487,3.937289,0.3531037,927.98,96,0.06407417,0,0,-1001,-55,-400,99,130808260,775949639,927970,96.38809,3.821043
22-01-2019, 14:48:00 ,0.000250512,0.00011973,1.686985,3.937289,0.3531037,927.98,96,0.06407417,0,0,-1001,-55,-400,99,130808260,775949639,927970,96.38809,3.821043
22-01-2019, 14:48:00 ,0.000250512,0.00011973,1.686985,3.599261,0.04159793,928.07,96,0.2106797,0,0,-1001,-55,-400,99,130808260,775949639,927970,96.38809,3.821043
22-01-2019, 14:48:00 ,0.000242115,0.000127879,1.687485,3.599261,0.04159793,928.07,96,0.2106797,0,0,-1001,-55,-400,99,130808260,775949639,927970,96.38809,3.821043
22-01-2019, 14:48:00 ,0.000242115,0.000127879,1.687485,3.579391,0.02472378,928.17,96,0.2185961,0,0,-1001,-55,-400,99,130808260,775949639,927970,96.38809,3.821043
22-01-2019, 14:48:00 ,0.000242115,0.000127879,1.687485,3.579391,0.02472378,928.17,96,0.2185961,0,0,-1001,-55,-400,99,130808260,775949639,927970,96.38809,3.821043
22-01-2019, 14:48:00 ,0.000242115,0.000127879,1.687485,3.579391,0.02472378,928.17,96,0.2185961,0,0,-1001,-55,-400,99,130808260,775949639,927970,96.38809,3.821043
22-01-2019, 14:48:00 ,0.000242115,0.000127879,1.687485,3.579391,0.02472378,928.17,96,0.2185961,0,0,-1001,-55,-400,99,130808260,775949639,927970,96.38809,3.821043
22-01-2019, 14:48:00 ,0.000242115,0.000127879,1.687485,3.579391,0.02472378,928.17,96,0.2185961,0,0,-1001,-55,-400,99,130808260,775949639,927970,96.46082,3.854252
22-01-2019, 14:48:00 ,0.000267514,0.000136663,1.687993,3.579391,0.02472378,928.17,96,0.2185961,0,0,-1001,-55,-400,99,130808260,775949639,927970,96.46082,3.854252
22-01-2019, 14:48:00 ,0.000267514,0.000136663,1.687993,3.533669,0.07801073,928.11,96,-0.2072507,0,0,-1001,-55,-400,99,130808260,775949639,927970,96.46082,3.854252
22-01-2019, 14:48:00 ,0.000302363,0.00013932,1.688508,3.533669,0.07801073,928.11,96,-0.2072507,0,0,-1001,-55,-400,99,130808260,775949639,927970,96.46082,3.854252
22-01-2019, 14:48:00 ,0.000302363,0.00013932,1.688508,3.444497,0.1595492,927.91,96,-0.2696861,0,0,-1001,-55,-400,99,130808260,775949639,927970,96.46082,3.854252
22-01-2019, 14:48:01 ,0.000302363,0.00013932,1.688508,3.444497,0.1595492,927.91,96,-0.2696861,0,0,-1001,-55,-400,99,130808260,775949639,927970,96.46082,3.854252
22-01-2019, 14:48:01 ,0.000302363,0.00013932,1.688508,3.444497,0.1595492,927.91,96,-0.2696861,0,0,-1001,-55,-400,99,130808260,775949639,927970,96.46082,3.854252
22-01-2019, 14:48:01 ,0.000302363,0.00013932,1.688508,3.444497,0.1595492,927.91,96,-0.2696861,0,0,-1001,-55,-400,99,130808260,775949639,927970,96.46082,3.854252
22-01-2019, 14:48:01 ,0.000302363,0.00013932,1.688508,3.444497,0.1595492,927.91,96,-0.2696861,0,0,-1001,-55,-400,99,130808260,775949639,927970,96.50841,3.869358
22-01-2019, 14:48:01 ,0.000377716,0.000201685,1.689027,3.444497,0.1595492,927.91,96,-0.2696861,0,0,-1001,-55,-400,99,130808260,775949639,927970,96.50841,3.869358
22-01-2019, 14:48:01 ,0.000377716,0.000201685,1.689027,3.81522,0.2526105,927.97,96,-0.02167897,0,0,-1001,-55,-400,99,130808260,775949639,927970,96.50841,3.869358
22-01-2019, 14:48:01 ,0.000428436,0.000259095,1.689534,3.81522,0.2526105,927.97,96,-0.02167897,0,0,-1001,-55,-400,99,130808260,775949639,927970,96.50841,3.869358
22-01-2019, 14:48:01 ,0.000428436,0.000259095,1.689534,3.58865,0.05120589,927.77,96,-0.1170663,0,0,-1001,-55,-400,99,130808260,775949639,927970,96.50841,3.869358
22-01-2019, 14:48:01 ,0.000428436,0.000259095,1.689534,3.58865,0.05120589,927.77,96,-0.1170663,0,0,-1001,-56,-400,99,130808260,775949639,927970,96.50841,3.869358
22-01-2019, 14:48:01 ,0.000428436,0.000259095,1.689534,3.58865,0.05120589,927.77,96,-0.1170663,0,0,-1001,-56,-400,99,130808260,775949639,927970,96.50841,3.869358
22-01-2019, 14:48:01 ,0.000428436,0.000259095,1.689534,3.58865,0.05120589,927.77,96,-0.1170663,0,0,-1001,-56,-400,99,130808260,775949639,927970,96.50841,3.869358
22-01-2019, 14:48:01 ,0.000428436,0.000259095,1.689534,3.58865,0.05120589,927.77,96,-0.1170663,0,0,-1001,-56,-400,99,130808260,775949639,927970,96.58061,3.908832
22-01-2019, 14:48:01 ,0.000493844,0.000316694,1.69004,3.58865,0.05120589,927.77,96,-0.1170663,0,0,-1001,-56,-400,99,130808260,775949639,927970,96.58061,3.908832
22-01-2019, 14:48:01 ,0.000493844,0.000316694,1.69004,3.536888,0.1085876,927.79,96,-0.5861986,0,0,-1001,-56,-400,99,130808260,775949639,927970,96.58061,3.908832
22-01-2019, 14:48:01 ,0.000547723,0.000373556,1.690543,3.536888,0.1085876,927.79,96,-0.5861986,0,0,-1001,-56,-400,99,130808260,775949639,927970,96.58061,3.908832
22-01-2019, 14:48:01 ,0.000547723,0.000373556,1.690543,3.548794,0.06620654,928.12,96,0.2393298,0,0,-1001,-56,-400,99,130808260,775949639,927970,96.58061,3.908832
22-01-2019, 14:48:02 ,0.000547723,0.000373556,1.690543,3.548794,0.06620654,928.12,96,0.2393298,0,0,-1001,-56,-400,99,130808260,775949639,927970,96.58061,3.908832
22-01-2019, 14:48:02 ,0.000547723,0.000373556,1.690543,3.548794,0.06620654,928.12,96,0.2393298,0,0,-1001,-56,-400,99,130808260,775949639,927970,96.58061,3.908832
22-01-2019, 14:48:02 ,0.000547723,0.000373556,1.690543,3.548794,0.06620654,928.12,96,0.2393298,0,0,-1001,-56,-400,99,130808260,775949639,927970,96.58061,3.908832
22-01-2019, 14:48:02 ,0.000547723,0.000373556,1.690543,3.548794,0.06620654,928.12,96,0.2393298,0,0,-1001,-56,-400,99,130808260,775949639,927970,96.62597,3.894582
22-01-2019, 14:48:02 ,0.000607169,0.000428845,1.691047,3.548794,0.06620654,928.12,96,0.2393298,0,0,-1001,-56,-400,99,130808260,775949639,927970,96.62597,3.894582
22-01-2019, 14:48:02 ,0.000607169,0.000428845,1.691047,3.523067,0.1030188,927.82,96,0.065904,0,0,-1001,-56,-400,99,130808260,775949639,927970,96.62597,3.894582
22-01-2019, 14:48:02 ,0.000666626,0.000486899,1.691547,3.523067,0.1030188,927.82,96,0.065904,0,0,-1001,-56,-400,99,130808260,775949639,927970,96.62597,3.894582
22-01-2019, 14:48:02 ,0.000666626,0.000486899,1.691547,3.542051,0.0393567,928.17,96,0.09125154,0,0,-1001,-56,-400,99,130808260,775949639,927970,96.62597,3.894582
22-01-2019, 14:48:02 ,0.000666626,0.000486899,1.691547,3.542051,0.0393567,928.17,96,0.09125154,0,0,-1000,-57,-400,99,130808260,775949639,927970,96.62597,3.894582
22-01-2019, 14:48:02 ,0.000666626,0.000486899,1.691547,3.542051,0.0393567,928.17,96,0.09125154,0,0,-1000,-57,-400,99,130808260,775949639,927970,96.62597,3.894582
22-01-2019, 14:48:02 ,0.000666626,0.000486899,1.691547,3.542051,0.0393567,928.17,96,0.09125154,0,0,-1000,-57,-400,99,130808260,775949639,927970,96.62597,3.894582
22-01-2019, 14:48:02 ,0.000666626,0.000486899,1.691547,3.542051,0.0393567,928.17,96,0.09125154,0,0,-1000,-57,-400,99,130808260,775949639,927970,96.69454,3.881638
22-01-2019, 14:48:02 ,0.000717501,0.000539558,1.692042,3.542051,0.0393567,928.17,96,0.09125154,0,0,-1000,-57,-400,99,130808260,775949639,927970,96.69454,3.881638
22-01-2019, 14:48:02 ,0.000717501,0.000539558,1.692042,3.350001,0.220524,927.81,96,-0.444852,0,0,-1000,-57,-400,99,130808260,775949639,927970,96.69454,3.881638
22-01-2019, 14:48:02 ,0.000768035,0.000587309,1.692519,3.350001,0.220524,927.81,96,-0.444852,0,0,-1000,-57,-400,99,130808260,775949639,927970,96.69454,3.881638
22-01-2019, 14:48:02 ,0.000768035,0.000587309,1.692519,3.353364,0.1795104,928.1,96,-0.01647601,0,0,-1000,-57,-400,99,130808260,775949639,927970,96.69454,3.881638
22-01-2019, 14:48:03 ,0.000768035,0.000587309,1.692519,3.353364,0.1795104,928.1,96,-0.01647601,0,0,-1000,-57,-400,99,130808260,775949639,927970,96.69454,3.881638
22-01-2019, 14:48:03 ,0.000768035,0.000587309,1.692519,3.353364,0.1795104,928.1,96,-0.01647601,0,0,-1000,-57,-400,99,130808260,775949639,927970,96.69454,3.881638
22-01-2019, 14:48:03 ,0.000768035,0.000587309,1.692519,3.353364,0.1795104,928.1,96,-0.01647601,0,0,-1000,-57,-400,99,130808260,775949639,927970,96.69454,3.881638
22-01-2019, 14:48:03 ,0.000768035,0.000587309,1.692519,3.353364,0.1795104,928.1,96,-0.01647601,0,0,-1000,-57,-400,99,130808260,775949639,927970,96.69454,3.881638
22-01-2019, 14:48:03 ,0.000820693,0.000641629,1.693008,3.353364,0.1795104,928.1,96,-0.01647601,0,0,-1000,-57,-400,99,130808260,775949639,927970,96.69454,3.881638
22-01-2019, 14:48:03 ,0.000820693,0.000641629,1.693008,3.456781,0.06294575,928.07,97,0.3754793,0,0,-1000,-57,-400,99,130808260,775949639,927970,96.69454,3.881638
22-01-2019, 14:48:03 ,0.000873339,0.000668782,1.693493,3.456781,0.06294575,928.07,97,0.3754793,0,0,-1000,-57,-400,99,130808260,775949639,927970,96.69454,3.881638
22-01-2019, 14:48:03 ,0.000873339,0.000668782,1.693493,3.741025,0.2440684,927.95,97,-0.1205349,0,0,-1000,-57,-400,99,130808260,775949639,927970,96.69454,3.881638
22-01-2019, 14:48:03 ,0.000873339,0.000668782,1.693493,3.741025,0.2440684,927.95,97,-0.1205349,0,0,-1001,-57,-400,99,130808260,775949639,927970,96.69454,3.881638
22-01-2019, 14:48:03 ,0.000873339,0.000668782,1.693493,3.741025,0.2440684,927.95,97,-0.1205349,0,0,-1001,-57,-400,99,130808260,775949639,927970,96.69454,3.881638
22-01-2019, 14:48:03 ,0.000873339,0.000668782,1.693493,3.741025,0.2440684,927.95,97,-0.1205349,0,0,-1001,-57,-400,99,130808260,775949639,927970,96.69454,3.881638
22-01-2019, 14:48:03 ,0.000873339,0.000668782,1.693493,3.741025,0.2440684,927.95,97,-0.1205349,0,0,-1001,-57,-400,99,130808260,775949639,927970,96.69454,3.881638
22-01-2019, 14:48:03 ,0.000909425,0.000712525,1.693972,3.741025,0.2440684,927.95,97,-0.1205349,0,0,-1001,-57,-400,99,130808260,775949639,927970,96.69454,3.881638
22-01-2019, 14:48:03 ,0.000909425,0.000712525,1.693972,3.689293,0.1171591,928.14,97,-0.8402759,0,0,-1001,-57,-400,99,130808260,775949639,927970,96.69454,3.881638
22-01-2019, 14:48:03 ,0.000954623,0.000751639,1.69445,3.689293,0.1171591,928.14,97,-0.8402759,0,0,-1001,-57,-400,99,130808260,775949639,927970,96.69454,3.881638
22-01-2019, 14:48:03 ,0.000954623,0.000751639,1.69445,3.523543,0.1047175,928.17,97,0.6555713,0,0,-1001,-57,-400,99,130808260,775949639,927970,96.69454,3.881638
22-01-2019, 14:48:04 ,0.000954623,0.000751639,1.69445,3.523543,0.1047175,928.17,97,0.6555713,0,0,-1001,-58,-400,99,130808260,775949639,927970,96.69454,3.881638
22-01-2019, 14:48:04 ,0.000954623,0.000751639,1.69445,3.523543,0.1047175,928.17,97,0.6555713,0,0,-1001,-58,-400,99,130808260,775949639,927970,96.69454,3.881638
22-01-2019, 14:48:04 ,0.000954623,0.000751639,1.69445,3.523543,0.1047175,928.17,97,0.6555713,0,0,-1001,-58,-400,99,130808260,775949639,927970,96.69454,3.881638
22-01-2019, 14:48:04 ,0.000954623,0.000751639,1.69445,3.523543,0.1047175,928.17,97,0.6555713,0,0,-1001,-58,-400,99,130808260,775949639,927970,96.69454,3.881638
22-01-2019, 14:48:04 ,0.000999895,0.000801949,1.694933,3.523543,0.1047175,928.17,97,0.6555713,0,0,-1001,-58,-400,99,130808260,775949639,927970,96.69454,3.881638
22-01-2019, 14:48:04 ,0.000999895,0.000801949,1.694933,3.683983,0.1222013,927.91,97,-0.1873061,0,0,-1001,-58,-400,99,130808260,775949639,927970,96.69454,3.881638
22-01-2019, 14:48:04 ,0.001040915,0.000853502,1.695406,3.683983,0.1222013,927.91,97,-0.1873061,0,0,-1001,-58,-400,99,130808260,775949639,927970,96.69454,3.881638
22-01-2019, 14:48:04 ,0.001040915,0.000853502,1.695406,3.62138,0.04686163,927.54,97,-0.2774905,0,0,-1001,-58,-400,99,130808260,775949639,927970,96.69454,3.881638
22-01-2019, 14:48:04 ,0.001040915,0.000853502,1.695406,3.62138,0.04686163,927.54,97,-0.2774905,0,0,-1001,-58,-400,99,130808260,775949639,927970,96.69454,3.881638
22-01-2019, 14:48:04 ,0.001040915,0.000853502,1.695406,3.62138,0.04686163,927.54,97,-0.2774905,0,0,-1001,-58,-400,99,130808260,775949639,927970,96.69454,3.881638
